{"type":"FeatureCollection","features":[{"type":"Feature","properties":{"FID":0,"Address":"10 N E St","Name":"Kawai Real Estate","Source":"Watanabe p68","Notes":"Tokuhei Kawai"},"geometry":{"type":"Point","coordinates":[-122.4463958,47.26474582]}},{"type":"Feature","properties":{"FID":1,"Address":"1100-1104 Market St","Name":"Crystal Palace Market","Source":"Ito, 1920 city dir p919","Notes":"(Jos Heitman mgr)"},"geometry":{"type":"Point","coordinates":[-122.4418849,47.25287233]}},{"type":"Feature","properties":{"FID":2,"Address":"106 S 24th St","Name":"Grand Hand Laundry","Source":"1933 city dir p275","Notes":"(Heitaro Tajiri)"},"geometry":{"type":"Point","coordinates":[-122.4346409,47.23989976]}},{"type":"Feature","properties":{"FID":3,"Address":"1104 Court C","Name":"Crystal Garage","Source":"1933 city dir p178","Notes":"(Yasokichi Aochi)"},"geometry":{"type":"Point","coordinates":[-122.4425281,47.25274261]}},{"type":"Feature","properties":{"FID":4,"Address":"1103 S Tacoma Ave","Name":"Kumakura Clothing Store","Source":"Watanabe p66, Morrison p60","Notes":"Kietsu Kumakura 1915 location"},"geometry":{"type":"Point","coordinates":[-122.4440701,47.2526309]}},{"type":"Feature","properties":{"FID":5,"Address":"1108 Market St","Name":"Sanitary Market","Source":"Ito, 1933 Dir p821","Notes":" "},"geometry":{"type":"Point","coordinates":[-122.4417434,47.25276707]}},{"type":"Feature","properties":{"FID":6,"Address":"1110 Commerce St","Name":"Spencer Teranishi Fruits","Source":"Morrison p54","Notes":" "},"geometry":{"type":"Point","coordinates":[-122.4395923,47.25288396]}},{"type":"Feature","properties":{"FID":7,"Address":"111 N E St","Name":"Stadium High School","Source":"2019 Address","Notes":"[Chizu went to Stadium]"},"geometry":{"type":"Point","coordinates":[-122.4486205,47.2668388]}},{"type":"Feature","properties":{"FID":8,"Address":"1110 Market St","Name":"Suzuki Fish Market","Source":"Morrison p58, Watanabe p66","Notes":"Jirokicki Suzuki 1915"},"geometry":{"type":"Point","coordinates":[-122.4417233,47.2526942]}},{"type":"Feature","properties":{"FID":9,"Address":"1112 Market St","Name":"B & B Salad Shop and Fruit Stand","Source":"Morrison p58","Notes":"Shiotami"},"geometry":{"type":"Point","coordinates":[-122.4417031,47.25261895]}},{"type":"Feature","properties":{"FID":10,"Address":"1116 Market St","Name":"Standard Meat Co.","Source":"Ito, 1933 city dir p647","Notes":"Akera Inouye"},"geometry":{"type":"Point","coordinates":[-122.4416431,47.25245867]}},{"type":"Feature","properties":{"FID":11,"Address":"1118 Broadway St","Name":"Marush Fish and Oyster Co.","Source":"Morrison p56","Notes":" "},"geometry":{"type":"Point","coordinates":[-122.4402766,47.2527118]}},{"type":"Feature","properties":{"FID":12,"Address":"1118 Market St","Name":"Akiyama Fruits","Source":"Morrison p58","Notes":" "},"geometry":{"type":"Point","coordinates":[-122.4416197,47.25239002]}},{"type":"Feature","properties":{"FID":13,"Address":"110 1/2 S 14th St","Name":"Standard Hotel","Source":"Ito, 1920 city dir p776","Notes":" "},"geometry":{"type":"Point","coordinates":[-122.4369751,47.25034897]}},{"type":"Feature","properties":{"FID":14,"Address":"108 1/2 S 14th St","Name":"Palmer Apartments","Source":"Ito, 1920 city dir p654","Notes":" "},"geometry":{"type":"Point","coordinates":[-122.4367216,47.25037345]}},{"type":"Feature","properties":{"FID":15,"Address":"1118-20 Broadway St","Name":"Washington Farmer's Market","Source":"Ito, 1929 city dir p866","Notes":" "},"geometry":{"type":"Point","coordinates":[-122.4402457,47.25258139]}},{"type":"Feature","properties":{"FID":16,"Address":"1120 Market St","Name":"Serizawa Fruits","Source":"Morrison p58","Notes":" "},"geometry":{"type":"Point","coordinates":[-122.4415996,47.25231835]}},{"type":"Feature","properties":{"FID":17,"Address":"1122 Market St","Name":"M & M Fish Market","Source":"Ito, Morrison p58, Watanabe p66","Notes":"Tsunijiro Nakanishi 1912"},"geometry":{"type":"Point","coordinates":[-122.4415795,47.25224786]}},{"type":"Feature","properties":{"FID":18,"Address":"1124 Court C","Name":"Capital Dye Works","Source":"Ito, city dir p137 Yoshioko","Notes":"(Frank M Fujimoto)"},"geometry":{"type":"Point","coordinates":[-122.4408686,47.25243297]}},{"type":"Feature","properties":{"FID":19,"Address":"1124 Market St","Name":"Hiyashi","Source":"Morrison p58","Notes":" "},"geometry":{"type":"Point","coordinates":[-122.4415596,47.25218094]}},{"type":"Feature","properties":{"FID":20,"Address":"1125 Court D","Name":"Sazio Suzuki","Source":"Morrison p61","Notes":" "},"geometry":{"type":"Point","coordinates":[-122.4418687,47.25229122]}},{"type":"Feature","properties":{"FID":21,"Address":"1126 Market St","Name":"Yakima Market","Source":"Ito, 1920 city dir p882","Notes":"A Inouye Fresh and Smoked Meats"},"geometry":{"type":"Point","coordinates":[-122.4415438,47.25212824]}},{"type":"Feature","properties":{"FID":22,"Address":"1128 Market St","Name":"Omori Fish Market and Kurimoto Shop","Source":"Morrison p58, Watanabe p66","Notes":"Haruichi Omori 1911"},"geometry":{"type":"Point","coordinates":[-122.4415152,47.25203885]}},{"type":"Feature","properties":{"FID":23,"Address":"1131 Market St","Name":"Jinguji Home","Source":"Masaye","Notes":"[Masaye's Address] Yes, 1131 Market Street. [Late*"},"geometry":{"type":"Point","coordinates":[-122.441121,47.25240195]}},{"type":"Feature","properties":{"FID":24,"Address":"1130 Court C","Name":"Genjiro Namba","Source":"Morrison p61","Notes":" "},"geometry":{"type":"Point","coordinates":[-122.4408283,47.25228485]}},{"type":"Feature","properties":{"FID":25,"Address":"1126 1/2 Market St","Name":"Tuomo Sado","Source":"Morrison p58","Notes":" "},"geometry":{"type":"Point","coordinates":[-122.441532,47.25209273]}},{"type":"Feature","properties":{"FID":26,"Address":"1136 N E St","Name":"Tacoma Branch of North American Post","Source":"Watanabe p67","Notes":"Masa Yamaguchi was the editor in 1914"},"geometry":{"type":"Point","coordinates":[-122.462794,47.2701984]}},{"type":"Feature","properties":{"FID":27,"Address":"1132 Pacific Ave","Name":"Oxford Cafe","Source":"Ito, Morrison p53","Notes":" "},"geometry":{"type":"Point","coordinates":[-122.438629,47.25218173]}},{"type":"Feature","properties":{"FID":28,"Address":"1136 Fawcett Ave","Name":"Hoshide","Source":"Morrison p59","Notes":" "},"geometry":{"type":"Point","coordinates":[-122.4430516,47.25211868]}},{"type":"Feature","properties":{"FID":29,"Address":"1143 Commerce St","Name":"Matsusawa Tailor and Yoshino Barber","Source":"Morrison p54","Notes":"Tailor, T Matsusawa and barber Tatsu Yoshino"},"geometry":{"type":"Point","coordinates":[-122.4390111,47.25288476]}},{"type":"Feature","properties":{"FID":30,"Address":"114 Puyallup Ave","Name":"Kawaguchi Laundry","Source":"Watanabe p63","Notes":"Kuraji Kawaguchi"},"geometry":{"type":"Point","coordinates":[-122.4331945,47.24006676]}},{"type":"Feature","properties":{"FID":31,"Address":"1150 Market St","Name":"A B Fish","Source":"Ito, 1933 city dir p45","Notes":"A & B Grocery Co (Jimmy Ito), Morrison p58 also l*"},"geometry":{"type":"Point","coordinates":[-122.4413581,47.25115172]}},{"type":"Feature","properties":{"FID":32,"Address":"1146-54 Broadway St","Name":"McCormack Bros Co. Department Store","Source":"Ito, 1929 city dir p866","Notes":" "},"geometry":{"type":"Point","coordinates":[-122.4400489,47.25190801]}},{"type":"Feature","properties":{"FID":33,"Address":"1154 Commerce St","Name":"Ishida Barber Shop, Bath House, and Laundry","Source":"Morrison p54","Notes":"combo of businesses by Kaname Ishida 1914"},"geometry":{"type":"Point","coordinates":[-122.4392914,47.25194212]}},{"type":"Feature","properties":{"FID":34,"Address":"1146 1/2 Market St","Name":"Yano Vegetable Market","Source":"Watanabe p66","Notes":"Masaji Yano"},"geometry":{"type":"Point","coordinates":[-122.4413816,47.25141379]}},{"type":"Feature","properties":{"FID":35,"Address":"1301 Market St","Name":"Olympic Laundry","Source":"Morrison p58","Notes":"Morrison also lists this as Western Laundry"},"geometry":{"type":"Point","coordinates":[-122.440733,47.25092439]}},{"type":"Feature","properties":{"FID":36,"Address":"12 St Helens Ave","Name":"Takashita Vegetable Market","Source":"Watanabe p67","Notes":"Iwaijro Takashita"},"geometry":{"type":"Point","coordinates":[-122.4464565,47.26289421]}},{"type":"Feature","properties":{"FID":37,"Address":"1304 Market St","Name":"Takeda Laundry","Source":"Morrison p58","Notes":"Yonekichi Takeda 1915"},"geometry":{"type":"Point","coordinates":[-122.4412628,47.25072238]}},{"type":"Feature","properties":{"FID":38,"Address":"1305 Broadway St","Name":"Mayflower Hotel and Candy Store","Source":"Munekata, Morrison p56","Notes":"[directions based on location of Sheraton Hotel] *"},"geometry":{"type":"Point","coordinates":[-122.4393463,47.25093898]}},{"type":"Feature","properties":{"FID":39,"Address":"1209 1/2 Pacific Ave","Name":"Avenue Hotel","Source":"Ito, 1933 city dir p70, Morrison p53","Notes":"(S Tamamoto)"},"geometry":{"type":"Point","coordinates":[-122.4380766,47.25209458]}},{"type":"Feature","properties":{"FID":40,"Address":"1211 1/2 Pacific Ave","Name":"Central Hotel","Source":"Morrison p53","Notes":" "},"geometry":{"type":"Point","coordinates":[-122.4380163,47.25187657]}},{"type":"Feature","properties":{"FID":41,"Address":"1306 Pacific Ave","Name":"Mecca Oyster House and Cigar Store, Kanego Barber","Source":"Morrison p53","Notes":"Barber, R.B. Kanego and Mecca Oyster House/Mecca *"},"geometry":{"type":"Point","coordinates":[-122.4383711,47.25098179]}},{"type":"Feature","properties":{"FID":42,"Address":"1310 Broadway","Name":"Fuji Ten Cent Store","Source":"1933 city dir p254, Munekata","Notes":"City dir: (Kumaichi Horike)"},"geometry":{"type":"Point","coordinates":[-122.4400018,47.25077951]}},{"type":"Feature","properties":{"FID":43,"Address":"1308 Broadway St","Name":"Y.S. Jewlers and Kamimae Candy Store","Source":"Morrison p56","Notes":"George Kamimae"},"geometry":{"type":"Point","coordinates":[-122.4400254,47.25085054]}},{"type":"Feature","properties":{"FID":44,"Address":"1308 1/2 Broadway St","Name":"Oakland Hotel","Source":"Ito, Morrison p56, Watanabe p61","Notes":"Naoshi Yoshida 1912"},"geometry":{"type":"Point","coordinates":[-122.4400419,47.25092168]}},{"type":"Feature","properties":{"FID":45,"Address":"1310 Market St","Name":"Dewey Hotel","Source":"Ito, 1933 dir p821","Notes":" Morrison p58 lists Shiro Kubo"},"geometry":{"type":"Point","coordinates":[-122.4411771,47.25038338]}},{"type":"Feature","properties":{"FID":46,"Address":"1315 Market St","Name":"St. Louis Hotel","Source":"Ito, Morrison p58","Notes":" "},"geometry":{"type":"Point","coordinates":[-122.4407117,47.25084469]}},{"type":"Feature","properties":{"FID":47,"Address":"1312 Pacific Ave","Name":"Golden Cafe","Source":"Ito, 1933 city dir p270","Notes":"(Yazaemon Abe)"},"geometry":{"type":"Point","coordinates":[-122.4383329,47.25084436]}},{"type":"Feature","properties":{"FID":48,"Address":"1313 Pacific Ave","Name":"Barber Shop and Bath House","Source":"Morrison p53","Notes":"Junjiro Takagi 1912"},"geometry":{"type":"Point","coordinates":[-122.4377815,47.25082383]}},{"type":"Feature","properties":{"FID":49,"Address":"1316 1/2 Broadway","Name":"Victoria Hotel","Source":"Ito, 1920 city dir p940 Morrison p56","Notes":"[directions based on location of Sheraton Hotel] *"},"geometry":{"type":"Point","coordinates":[-122.4399838,47.25071673]}},{"type":"Feature","properties":{"FID":50,"Address":"1317 1/2 Broadway St","Name":"New Tacoma Hotel and Watanabe Dentist Office and *","Source":"Ito, Interview, Morrison p56 Ito, 1929 city dir p*","Notes":"we moved to another hotel between 13th and 15th o*"},"geometry":{"type":"Point","coordinates":[-122.439646,47.25046171]}},{"type":"Feature","properties":{"FID":51,"Address":"1319 Commerce St","Name":"Takesaburo Shoe Repair","Source":"Morrison p54","Notes":"Henry Takesaburo"},"geometry":{"type":"Point","coordinates":[-122.438676,47.2511481]}},{"type":"Feature","properties":{"FID":52,"Address":"1319 Broadway St","Name":"Yorozuya Barber Shop","Source":"Morrison p56","Notes":"Hidekichi Yorozuya"},"geometry":{"type":"Point","coordinates":[-122.4396295,47.25039295]}},{"type":"Feature","properties":{"FID":53,"Address":"1319 Court C","Name":"Japanese Surname","Source":"Morrison p61","Notes":" "},"geometry":{"type":"Point","coordinates":[-122.4403272,47.25039852]}},{"type":"Feature","properties":{"FID":54,"Address":"1318 Fawcett Ave","Name":"S. Toki","Source":"Morrison p59","Notes":" "},"geometry":{"type":"Point","coordinates":[-122.4427421,47.2504987]}},{"type":"Feature","properties":{"FID":55,"Address":"1317 1/2 Court C","Name":"Japanese Surname","Source":"Morrison p61","Notes":" "},"geometry":{"type":"Point","coordinates":[-122.440351,47.25047817]}},{"type":"Feature","properties":{"FID":56,"Address":"1320 Court C","Name":"Tanaka Toko (Barber)","Source":"Ito, Misaki translate","Notes":" "},"geometry":{"type":"Point","coordinates":[-122.4403103,47.25031727]}},{"type":"Feature","properties":{"FID":57,"Address":"1320 Market St","Name":"Panama Garage","Source":"Ito, 1933 City Directory","Notes":" "},"geometry":{"type":"Point","coordinates":[-122.4410788,47.2500077]}},{"type":"Feature","properties":{"FID":58,"Address":"1320 1/2 Broadway St","Name":"Mayflower Apartments","Source":"Morrison p56","Notes":"5 of 9 residents have a Japanese Surname"},"geometry":{"type":"Point","coordinates":[-122.4399673,47.25064559]}},{"type":"Feature","properties":{"FID":59,"Address":"1324 Market St","Name":"Panama Service and Gas Station","Source":"1933 city dir p821","Notes":" "},"geometry":{"type":"Point","coordinates":[-122.441062,47.2499324]}},{"type":"Feature","properties":{"FID":60,"Address":"1320 Fawcett Ave","Name":"Fuji","Source":"Morrison p59","Notes":" "},"geometry":{"type":"Point","coordinates":[-122.4426939,47.25032573]}},{"type":"Feature","properties":{"FID":61,"Address":"1326 Commerce St","Name":"O.K. Furniture Store","Source":"Morrison p54","Notes":"used furniture store"},"geometry":{"type":"Point","coordinates":[-122.4390995,47.25096603]}},{"type":"Feature","properties":{"FID":62,"Address":"1322 Pacific Ave","Name":"California Chop House","Source":"Watanabe p4, Morrison p53","Notes":"in 1886 Mr Eijiro... opened Western style restaur*"},"geometry":{"type":"Point","coordinates":[-122.4382612,47.25050513]}},{"type":"Feature","properties":{"FID":63,"Address":"1324 Pacific Ave","Name":"Good Eats Cafe","Source":"Morrison p53","Notes":" "},"geometry":{"type":"Point","coordinates":[-122.4382464,47.25043395]}},{"type":"Feature","properties":{"FID":64,"Address":"1327 1/2 Broadway","Name":"Hata Photographer and Frank Owada Photography","Source":"Munekata, 1920 city dir p981 Munekata, 1929 city *","Notes":" And then there were?there was a photographer,\ndi*"},"geometry":{"type":"Point","coordinates":[-122.4396151,47.25033367]}},{"type":"Feature","properties":{"FID":65,"Address":"1326 1/2 Fawcett Ave","Name":"Hasegawa","Source":"Morrison p59","Notes":" "},"geometry":{"type":"Point","coordinates":[-122.4426526,47.25015263]}},{"type":"Feature","properties":{"FID":66,"Address":"1327 Commerce St","Name":"Iwasaki Men's Clothing Store","Source":"Morrison p54","Notes":"Wm. Iwasaki"},"geometry":{"type":"Point","coordinates":[-122.4386595,47.25107695]}},{"type":"Feature","properties":{"FID":67,"Address":"1327 Market St","Name":"Vendome Hotel","Source":"Riyeko, 1933 directory","Notes":"My family lived [at the Dendome]"},"geometry":{"type":"Point","coordinates":[-122.4406879,47.25076504]}},{"type":"Feature","properties":{"FID":68,"Address":"1330 Broadway St","Name":"Japanese Surname","Source":"Morrison p56","Notes":" "},"geometry":{"type":"Point","coordinates":[-122.4399508,47.25057682]}},{"type":"Feature","properties":{"FID":69,"Address":"1328 1/2 Broadway St","Name":"Japanese Surname","Source":"Morrison p56","Notes":" "},"geometry":{"type":"Point","coordinates":[-122.4398706,47.25029368]}},{"type":"Feature","properties":{"FID":70,"Address":"1329 1/2 Broadway St","Name":"Shimamoto Barber Shop","Source":"Morrison p56","Notes":"Yoshita Shimamoto"},"geometry":{"type":"Point","coordinates":[-122.4395986,47.25026491]}},{"type":"Feature","properties":{"FID":71,"Address":"1330 1/2 Broadway St","Name":"A B Hotel","Source":"Ito 1933 city dir p822 Morrison p56 Watanabe p61","Notes":"1933 dir: (Saiichi H oto) Morrison: Yuzo Mori 1915"},"geometry":{"type":"Point","coordinates":[-122.4398542,47.25022492]}},{"type":"Feature","properties":{"FID":72,"Address":"1331 Broadway St","Name":"Shikaya Vegetables and Nakata Tailor","Source":"Morrison p56 Ito, Munekata, 1933 city dir p495","Notes":"Vegetable business Kunigoro Shikaya 1917"},"geometry":{"type":"Point","coordinates":[-122.4389642,47.24935988]}},{"type":"Feature","properties":{"FID":73,"Address":"1332 Broadway St","Name":"Liberty Cafe","Source":"Morrison p56","Notes":" "},"geometry":{"type":"Point","coordinates":[-122.4399342,47.25050568]}},{"type":"Feature","properties":{"FID":74,"Address":"1331 1/2 Commerce St","Name":"Yamada Barber","Source":"Morrison p54","Notes":"Heitaro Yamada"},"geometry":{"type":"Point","coordinates":[-122.4386379,47.25101066]}},{"type":"Feature","properties":{"FID":75,"Address":"1334 Broadway St","Name":"Nishioka and Mori Barber Shop and Mori Dry Cleane*","Source":"Morrison p56, Watanabe p65 Munekata, 1929 city di*","Notes":"Kiyo Nishioka and Jotaro Mori 1914"},"geometry":{"type":"Point","coordinates":[-122.4398872,47.25036482]}},{"type":"Feature","properties":{"FID":76,"Address":"1334 1/2 Broadway","Name":"Nishioka-Toko (Barber) and Kobu Barber and U.S. C*","Source":"Ito, Misaki translated, 1920 city dir p627 Morris*","Notes":" "},"geometry":{"type":"Point","coordinates":[-122.4399107,47.25043466]}},{"type":"Feature","properties":{"FID":77,"Address":"1336 Broadway St","Name":"HQ Tacoma Japanese Barbers Assoc. and Jingiji Bar*","Source":"Morrison p56 Munekata, 1920 city dir p899","Notes":"it was HQ for barbers and also had a barber shop,*"},"geometry":{"type":"Point","coordinates":[-122.4398376,47.25015378]}},{"type":"Feature","properties":{"FID":78,"Address":"1334 Fawcett Ave","Name":"Japanese Surname","Source":"Morrison p59","Notes":" "},"geometry":{"type":"Point","coordinates":[-122.4424552,47.24942985]}},{"type":"Feature","properties":{"FID":79,"Address":"1334 Pacific Ave","Name":"City Oyster and Chop House","Source":"Morrison p53","Notes":" "},"geometry":{"type":"Point","coordinates":[-122.4382251,47.25023077]}},{"type":"Feature","properties":{"FID":80,"Address":"1337 Commerce St","Name":"Berkeley Hotel","Source":"Joe Kosai","Notes":"they bought the hotel at 1337 commerce street. an*"},"geometry":{"type":"Point","coordinates":[-122.4386214,47.2509419]}},{"type":"Feature","properties":{"FID":81,"Address":"1338 Broadway St","Name":"New York Cafe and U.S. Cafe and Shinwaka Restaura*","Source":"1920 city dir p623 Morrison p56, Watanabe p65 Mun*","Notes":"K Michiuye"},"geometry":{"type":"Point","coordinates":[-122.4397974,47.25000804]}},{"type":"Feature","properties":{"FID":82,"Address":"1336 Pacific Ave","Name":"Owl Cafe and Oka Restaurant","Source":"Ito, 1920 city dir p649 Morrison p53, Watanabe p65","Notes":"R Oiye"},"geometry":{"type":"Point","coordinates":[-122.4382103,47.2501596]}},{"type":"Feature","properties":{"FID":83,"Address":"1338 1/2 Broadway St","Name":"Japanese Surname","Source":"Morrison p56","Notes":" "},"geometry":{"type":"Point","coordinates":[-122.4398139,47.25007918]}},{"type":"Feature","properties":{"FID":84,"Address":"1340 Broadway","Name":"Iroha Restaurant","Source":"Ito Watanabe p17 67 1933 dir p344 Morrison p56","Notes":"(S Ninomiya) <-- Watanabe. Morrison:Iroha Cafe, J*"},"geometry":{"type":"Point","coordinates":[-122.4396286,47.24930263]}},{"type":"Feature","properties":{"FID":85,"Address":"1339 Broadway St","Name":"Japanese Surname","Source":"Morrison p56","Notes":" "},"geometry":{"type":"Point","coordinates":[-122.4395821,47.25019377]}},{"type":"Feature","properties":{"FID":86,"Address":"1340 Commerce St","Name":"Pacific Hotel","Source":"Morrison p54, Watanabe p61","Notes":"Taiheiyo (Pacific) Hotel, Junichi Nakashima manag*"},"geometry":{"type":"Point","coordinates":[-122.439083,47.25089489]}},{"type":"Feature","properties":{"FID":87,"Address":"1341 Broadway St","Name":"Sankyo Barber, Bath House, and Laundry","Source":"Morrison p56","Notes":"Kunitaro Sankyo 1902"},"geometry":{"type":"Point","coordinates":[-122.4395605,47.25012747]}},{"type":"Feature","properties":{"FID":88,"Address":"1341 Market St","Name":"Matsuzawa Clothing Shop","Source":"Morrison p58, Watanabe p66","Notes":"Tsunesaku Matsuzawa"},"geometry":{"type":"Point","coordinates":[-122.4406631,47.25068452]}},{"type":"Feature","properties":{"FID":89,"Address":"1342 Broadway St","Name":"Niyama Jewelry","Source":"Ito, Morrison p56 Munekata, 1920 city dir p627","Notes":"several businesses - bath house, barber shop, lau*"},"geometry":{"type":"Point","coordinates":[-122.4397809,47.24993928]}},{"type":"Feature","properties":{"FID":90,"Address":"1341 1/2 Broadway St","Name":"Mori Shoe Repair","Source":"Munekata, 1929 city dir p967","Notes":"Mori Sakuzo"},"geometry":{"type":"Point","coordinates":[-122.439544,47.25005871]}},{"type":"Feature","properties":{"FID":91,"Address":"1342 Market St","Name":"Japanese Surname","Source":"Morrison p57","Notes":" "},"geometry":{"type":"Point","coordinates":[-122.4410427,47.24985654]}},{"type":"Feature","properties":{"FID":92,"Address":"1343 Broadway St","Name":"Japanese Surname","Source":"Morrison p56","Notes":" "},"geometry":{"type":"Point","coordinates":[-122.4395274,47.24998757]}},{"type":"Feature","properties":{"FID":93,"Address":"1342 Fawcett Ave","Name":"Nyshizaki","Source":"Morrison p59","Notes":" "},"geometry":{"type":"Point","coordinates":[-122.4425748,47.2497897]}},{"type":"Feature","properties":{"FID":94,"Address":"1342 1/2 Fawcett Ave","Name":"Sako","Source":"Morrison p59","Notes":" "},"geometry":{"type":"Point","coordinates":[-122.4426121,47.24997357]}},{"type":"Feature","properties":{"FID":95,"Address":"1343 Market St","Name":"Japanese Surname","Source":"Morrison p57","Notes":" "},"geometry":{"type":"Point","coordinates":[-122.4406419,47.25060482]}},{"type":"Feature","properties":{"FID":96,"Address":"1344 Broadway St","Name":"Okada Tailor","Source":"Ito, 1920 city dir p637 Morrison p56","Notes":" "},"geometry":{"type":"Point","coordinates":[-122.4397644,47.24986814]}},{"type":"Feature","properties":{"FID":97,"Address":"1344 Market St","Name":"Japanese Surname","Source":"Morrison p57","Notes":" "},"geometry":{"type":"Point","coordinates":[-122.441026,47.24978124]}},{"type":"Feature","properties":{"FID":98,"Address":"1345 Broadway St","Name":"Japanese Surname","Source":"Morrison p55","Notes":" "},"geometry":{"type":"Point","coordinates":[-122.439204,47.25022866]}},{"type":"Feature","properties":{"FID":99,"Address":"1343 1/2 Fawcett Ave","Name":"Nagai","Source":"Morrison p59","Notes":" "},"geometry":{"type":"Point","coordinates":[-122.4421142,47.25010393]}},{"type":"Feature","properties":{"FID":100,"Address":"1346 Broadway St","Name":"Nikko Cafe and Chinese Garden Restaurant","Source":"Munekata, 1929 city dir p867 Morrison p55 Munekat*","Notes":" "},"geometry":{"type":"Point","coordinates":[-122.4397461,47.2497994]}},{"type":"Feature","properties":{"FID":101,"Address":"1345 Fawcett Ave","Name":"Sugihara and Namiki","Source":"Morrison p59","Notes":" "},"geometry":{"type":"Point","coordinates":[-122.4418499,47.24922336]}},{"type":"Feature","properties":{"FID":102,"Address":"1347 Broadway St","Name":"OK Grocery and Kawaguchi Fruit Stand and Tobacco *","Source":"Ito, 1933 city dir p768 Morrison p55 Morrison p55*","Notes":" "},"geometry":{"type":"Point","coordinates":[-122.4391874,47.25015752]}},{"type":"Feature","properties":{"FID":103,"Address":"1348 Broadway St","Name":"Japanese Surname","Source":"Morrison p55","Notes":" "},"geometry":{"type":"Point","coordinates":[-122.4397296,47.24972826]}},{"type":"Feature","properties":{"FID":104,"Address":"1349 Broadway St","Name":"Liberty/Kyoya Pool Hall","Source":"Ito, Munekata, 1929 city dir p867 Morrison p55","Notes":" "},"geometry":{"type":"Point","coordinates":[-122.4391658,47.25009123]}},{"type":"Feature","properties":{"FID":105,"Address":"1349 Market St","Name":"Matsuno Sushi Restaurant and Kubo Japanese Restau*","Source":"Ito, 1929 city dir p514 Morrison p57","Notes":"Mrs. I Isa"},"geometry":{"type":"Point","coordinates":[-122.440618,47.25052518]}},{"type":"Feature","properties":{"FID":106,"Address":"1347 1/2 Fawcett Ave","Name":"Japanese Surname","Source":"Morrison p59","Notes":" "},"geometry":{"type":"Point","coordinates":[-122.4420683,47.24992318]}},{"type":"Feature","properties":{"FID":107,"Address":"1347 Fawcett Ave","Name":"Nishioka","Source":"Morrison p59","Notes":" "},"geometry":{"type":"Point","coordinates":[-122.441812,47.24904783]}},{"type":"Feature","properties":{"FID":108,"Address":"1350 Broadway St","Name":"Takahashi Grocery","Source":"Munekata, 1933 city dir p768 Morrison p55","Notes":"Yoshio"},"geometry":{"type":"Point","coordinates":[-122.4397182,47.24965584]}},{"type":"Feature","properties":{"FID":109,"Address":"1351 Broadway St","Name":"Shiraishi Barber","Source":"Morrison p55, Watanabe p64","Notes":"Yoshiji Shiraishi 1909"},"geometry":{"type":"Point","coordinates":[-122.4391493,47.25002246]}},{"type":"Feature","properties":{"FID":110,"Address":"1352 Broadway St","Name":"Wa Chong Cafe","Source":"Munekata, 1929 city dir p867","Notes":" "},"geometry":{"type":"Point","coordinates":[-122.4397017,47.2495847]}},{"type":"Feature","properties":{"FID":111,"Address":"1352-54 Commerce St","Name":"Okuda Produce","Source":"Morrison p54","Notes":"Produce business, B.M. Okuda"},"geometry":{"type":"Point","coordinates":[-122.4390613,47.25082859]}},{"type":"Feature","properties":{"FID":112,"Address":"1353 Broadway St","Name":"Japanese Surname","Source":"Morrison p55","Notes":" "},"geometry":{"type":"Point","coordinates":[-122.4391328,47.24995132]}},{"type":"Feature","properties":{"FID":113,"Address":"1354 Broadway St","Name":"Main Drug and Hoshide Drug Store","Source":"Ito, 1920 city dir Morrison p55, Watanabe p69","Notes":"K Hoshide"},"geometry":{"type":"Point","coordinates":[-122.4396616,47.24944254]}},{"type":"Feature","properties":{"FID":114,"Address":"1354 1/2 Broadway St","Name":"New Washington Hotel and 3 other Japanese busines*","Source":"1929 city dir p867 Morrison p55","Notes":"Sadakichi Ohnuma 1913, 1920 dir says s corner 15t*"},"geometry":{"type":"Point","coordinates":[-122.4396781,47.24951368]}},{"type":"Feature","properties":{"FID":115,"Address":"1354 Court C","Name":"Union Laundry","Source":"Watanabe p62, Munekata","Notes":"Yonekichi Kita President"},"geometry":{"type":"Point","coordinates":[-122.4402093,47.249822]}},{"type":"Feature","properties":{"FID":116,"Address":"1354 1/2 Market St","Name":"Teikoku Trading Co.","Source":"Morrison p57","Notes":"Eikichi Sakamoto 1914"},"geometry":{"type":"Point","coordinates":[-122.4409897,47.24962413]}},{"type":"Feature","properties":{"FID":117,"Address":"1354 Market St","Name":"Nakagawa Candy Store and Hotel Union","Source":"Morrison p57, Watanabe p69 Ito, 1920 city dir p941","Notes":"Kamekichi Nakagawa 1913, also listed as: Taiheiyo*"},"geometry":{"type":"Point","coordinates":[-122.4408887,47.24924789]}},{"type":"Feature","properties":{"FID":118,"Address":"1355 1/2 Market St","Name":"Japanese Surname Business","Source":"Morrison p57","Notes":" "},"geometry":{"type":"Point","coordinates":[-122.4406034,47.25044686]}},{"type":"Feature","properties":{"FID":119,"Address":"1355 Broadway","Name":"Furuya & Co","Source":"Ito, Morrison p55, 1933 city dir p?","Notes":"Yoshiakira Furuuchi Mgr, Japanese Food Supplies a*"},"geometry":{"type":"Point","coordinates":[-122.4391144,47.24987664]}},{"type":"Feature","properties":{"FID":120,"Address":"1356 Commerce St","Name":"Barber and Royal Hand Laundry","Source":"Morrison p54 Ito, 1929 city dir p872","Notes":"Barber, Mrs. Chiyo Nakagawara and Royal Hand Laun*"},"geometry":{"type":"Point","coordinates":[-122.4390449,47.25075983]}},{"type":"Feature","properties":{"FID":121,"Address":"1356 Broadway St","Name":"Bar, Cafe, Pool Hall, and Variety Shop","Source":"Morrison p55, Watanabe p60","Notes":"Fukuma Morita"},"geometry":{"type":"Point","coordinates":[-122.4396451,47.24937377]}},{"type":"Feature","properties":{"FID":122,"Address":"1355 Fawcett Ave","Name":"Yoshhara Grocery","Source":"Morrison p59","Notes":" "},"geometry":{"type":"Point","coordinates":[-122.4419911,47.24960011]}},{"type":"Feature","properties":{"FID":123,"Address":"1356 Market St","Name":"Narahashi Laundry and Pacific Hand Laundry","Source":"Morrison p57 Ito, 1920 city dir p651","Notes":"Sakutaro Narahashi 1915"},"geometry":{"type":"Point","coordinates":[-122.4410064,47.24969943]}},{"type":"Feature","properties":{"FID":124,"Address":"1409 Court A","Name":"Owl Hotel","Source":"Morrison p61","Notes":" "},"geometry":{"type":"Point","coordinates":[-122.4369432,47.25019179]}},{"type":"Feature","properties":{"FID":125,"Address":"1407 Pacific Ave","Name":"Tokyo Laundry","Source":"Morrison p53, Ito","Notes":" "},"geometry":{"type":"Point","coordinates":[-122.4375599,47.24996217]}},{"type":"Feature","properties":{"FID":126,"Address":"1402 S Tacoma Ave","Name":"Y. Mukai","Source":"Morrison p59","Notes":" "},"geometry":{"type":"Point","coordinates":[-122.4440198,47.24947978]}},{"type":"Feature","properties":{"FID":127,"Address":"1409 Pacific Ave","Name":"Otsuka Laundry","Source":"Morrison p53","Notes":"Hidegoro Otsuka"},"geometry":{"type":"Point","coordinates":[-122.4375407,47.24989108]}},{"type":"Feature","properties":{"FID":128,"Address":"1422 Court C","Name":"Japanese Surname","Source":"Morrison p61","Notes":" "},"geometry":{"type":"Point","coordinates":[-122.4399807,47.24881733]}},{"type":"Feature","properties":{"FID":129,"Address":"1421 Court A","Name":"Japanese Surname","Source":"Morrison p61","Notes":" "},"geometry":{"type":"Point","coordinates":[-122.4369157,47.25003453]}},{"type":"Feature","properties":{"FID":130,"Address":"1481 Court A","Name":"Japanese Surname","Source":"Morrison p61","Notes":" "},"geometry":{"type":"Point","coordinates":[-122.4367791,47.24956843]}},{"type":"Feature","properties":{"FID":131,"Address":"1410 Tacoma Ave S","Name":"Shinto Church","Source":"Takasugi, 1933 city dir p370, 862","Notes":"page 862 lists Uo Kamekichi and 370 says Kamekich*"},"geometry":{"type":"Point","coordinates":[-122.443933,47.24913307]}},{"type":"Feature","properties":{"FID":132,"Address":"1501 Market St","Name":"15th Ave Garage","Source":"Ito, 1933 city dir p822","Notes":" "},"geometry":{"type":"Point","coordinates":[-122.4401847,47.24802771]}},{"type":"Feature","properties":{"FID":133,"Address":"1502 Broadway St","Name":"Kochi Prefecture Association","Source":"Morrison p55, Watanabe p79","Notes":1911},"geometry":{"type":"Point","coordinates":[-122.4393951,47.24896165]}},{"type":"Feature","properties":{"FID":134,"Address":"1502 Jefferson St","Name":"Majestic Cigar","Source":"Morrison p60","Notes":" "},"geometry":{"type":"Point","coordinates":[-122.4383882,47.2478233]}},{"type":"Feature","properties":{"FID":135,"Address":"1501 Fawcett Ave","Name":"Nishimoto","Source":"Morrison p59","Notes":" "},"geometry":{"type":"Point","coordinates":[-122.4417762,47.24866009]}},{"type":"Feature","properties":{"FID":136,"Address":"1503 Commerce St","Name":"Tsuda Barber","Source":"Morrison p54","Notes":"Isaburo Tsuda"},"geometry":{"type":"Point","coordinates":[-122.4382265,47.24903507]}},{"type":"Feature","properties":{"FID":137,"Address":"1502 1/2 Broadway St","Name":"Elgin Hotel","Source":"Morrison p55, Watanabe p61","Notes":"Jusuke Fukutomi 1911"},"geometry":{"type":"Point","coordinates":[-122.439379,47.24887859]}},{"type":"Feature","properties":{"FID":138,"Address":"1504 Broadway St","Name":"Japanese Restaurant","Source":"Morrison p55, Watanabe p67","Notes":"Eiji Torikoshi 1911"},"geometry":{"type":"Point","coordinates":[-122.4393585,47.24879561]}},{"type":"Feature","properties":{"FID":139,"Address":"1505 Court C","Name":"Japanese Surname","Source":"Morrison p61","Notes":" "},"geometry":{"type":"Point","coordinates":[-122.4395553,47.24877387]}},{"type":"Feature","properties":{"FID":140,"Address":"1503 1/2 Commerce St","Name":"Kenjo Barber Shop and Bath House","Source":"Morrison p54","Notes":"Kametaro Kenjo"},"geometry":{"type":"Point","coordinates":[-122.4382431,47.24910621]}},{"type":"Feature","properties":{"FID":141,"Address":"1506 Broadway St","Name":"Yamane Laundry, Bath House and Barber and Asahi P*","Source":"Morrison p55 Ito, 1933 city dir p768","Notes":"Magoichi Yamane"},"geometry":{"type":"Point","coordinates":[-122.4393415,47.24871198]}},{"type":"Feature","properties":{"FID":142,"Address":"1505 Fawcett Ave","Name":"Japanese Baptist Church","Source":"Munekata, 1933 city dir p350","Notes":"[Hattori's Mother] went to at the ... Japanese Ba*"},"geometry":{"type":"Point","coordinates":[-122.4417111,47.24854372]}},{"type":"Feature","properties":{"FID":143,"Address":"1506 Market St","Name":"Drayage Trucking Business &Torii Tofu Shop","Source":"Morrison p57, Watanabe p69","Notes":"Kisoji Hiroishi 1914, Teiji Torii 1914"},"geometry":{"type":"Point","coordinates":[-122.4407713,47.24865827]}},{"type":"Feature","properties":{"FID":144,"Address":"1508 Broadway St","Name":"Japanese Surname","Source":"Morrison p55","Notes":" "},"geometry":{"type":"Point","coordinates":[-122.4393211,47.24863198]}},{"type":"Feature","properties":{"FID":145,"Address":"1508 Market St","Name":"Koji Rice Dealers","Source":"Morrison p57","Notes":" "},"geometry":{"type":"Point","coordinates":[-122.4407551,47.24857522]}},{"type":"Feature","properties":{"FID":146,"Address":"1509 Commerce St","Name":"Vacant Lot Playground","Source":"Joe Kosai, 1941 city dir p993","Notes":" "},"geometry":{"type":"Point","coordinates":[-122.4382101,47.24896631]}},{"type":"Feature","properties":{"FID":147,"Address":"1510 Broadway St","Name":"Japanese surname","Source":"Morrison p55","Notes":" "},"geometry":{"type":"Point","coordinates":[-122.4393068,47.24854949]}},{"type":"Feature","properties":{"FID":148,"Address":"1510 Jefferson St","Name":"Hammamoto Fruits & Grocery","Source":"Ito, Morrison p60","Notes":" "},"geometry":{"type":"Point","coordinates":[-122.4379454,47.24802622]}},{"type":"Feature","properties":{"FID":149,"Address":"1506 1/2 Pacific Ave","Name":"Travelers' Hotel","Source":"Ito, Morrison p53","Notes":" "},"geometry":{"type":"Point","coordinates":[-122.4379443,47.24898861]}},{"type":"Feature","properties":{"FID":150,"Address":"1511 Market St","Name":"Japanese Surname","Source":"Morrison p57","Notes":" "},"geometry":{"type":"Point","coordinates":[-122.4401634,47.24794712]}},{"type":"Feature","properties":{"FID":151,"Address":"1510 Fawcett Ave","Name":"Mieko Home","Source":"June","Notes":"And then, they had another house on Fawcett, whic*"},"geometry":{"type":"Point","coordinates":[-122.4421258,47.24841179]}},{"type":"Feature","properties":{"FID":152,"Address":"1510 Pacific Ave","Name":"Hosokawa Barber","Source":"Morrison p53","Notes":"Michisuke Hosokawa"},"geometry":{"type":"Point","coordinates":[-122.4379138,47.24884688]}},{"type":"Feature","properties":{"FID":153,"Address":"1512 1/2 Broadway St","Name":"Kyushu Hotel","Source":"Morrison p55","Notes":"Chotaro Hiroshige 1916"},"geometry":{"type":"Point","coordinates":[-122.4392705,47.24839238]}},{"type":"Feature","properties":{"FID":154,"Address":"1511 S Tacoma Ave","Name":"Moriichi Barber","Source":"Morrison p59","Notes":"Yamane Moriichi"},"geometry":{"type":"Point","coordinates":[-122.4431237,47.24792895]}},{"type":"Feature","properties":{"FID":155,"Address":"1512 1/2 Jefferson St","Name":"Restaurant","Source":"Morrison p60","Notes":" "},"geometry":{"type":"Point","coordinates":[-122.4380432,47.24831502]}},{"type":"Feature","properties":{"FID":156,"Address":"1512 Broadway St","Name":"Uwajima-ya and Ozawa Co. Store","Source":"Ito, 1929 city dir p867 Morrison p55","Notes":" "},"geometry":{"type":"Point","coordinates":[-122.4392907,47.24846644]}},{"type":"Feature","properties":{"FID":157,"Address":"1512 Fawcett Ave","Name":"Komaro and Okada","Source":"Morrison p59","Notes":" "},"geometry":{"type":"Point","coordinates":[-122.4421097,47.24832873]}},{"type":"Feature","properties":{"FID":158,"Address":"1512 Jefferson Ave","Name":"State Cafe and Kawai Barber Shop","Source":"Hanna Kae, 1920 city dir Morrison p60, Watanabe p*","Notes":" "},"geometry":{"type":"Point","coordinates":[-122.4379653,47.24809492]}},{"type":"Feature","properties":{"FID":159,"Address":"1512 1/2 Pacific Ave","Name":"Ranier Hotel","Source":"Morrison p53","Notes":" "},"geometry":{"type":"Point","coordinates":[-122.4378875,47.24877233]}},{"type":"Feature","properties":{"FID":160,"Address":"1514 Market St","Name":"Japanese Surname","Source":"Morrison p57","Notes":" "},"geometry":{"type":"Point","coordinates":[-122.4407177,47.24840861]}},{"type":"Feature","properties":{"FID":161,"Address":"1513 S Tacoma Ave","Name":"Grocery Store","Source":"Morrison p59","Notes":" "},"geometry":{"type":"Point","coordinates":[-122.4430858,47.24775104]}},{"type":"Feature","properties":{"FID":162,"Address":"1514 Fawcett Ave","Name":"Otsuka and Ueda","Source":"Morrison p59","Notes":" "},"geometry":{"type":"Point","coordinates":[-122.4420893,47.24824575]}},{"type":"Feature","properties":{"FID":163,"Address":"1514 Pacific Ave","Name":"Grand Cafe","Source":"Ito, 1933 city dir p275, Watanabe p65","Notes":"(Sadamu Yamo M Nishida)"},"geometry":{"type":"Point","coordinates":[-122.4378736,47.24870174]}},{"type":"Feature","properties":{"FID":164,"Address":"1514 1/2 Pacific Ave","Name":"Grand Hotel","Source":"Ito,1933 city dir p275","Notes":"(S Kosai)"},"geometry":{"type":"Point","coordinates":[-122.4378561,47.24862704]}},{"type":"Feature","properties":{"FID":165,"Address":"1514 S Tacoma Ave","Name":"Ito","Source":"Morrison p59","Notes":" "},"geometry":{"type":"Point","coordinates":[-122.4436636,47.2480663]}},{"type":"Feature","properties":{"FID":166,"Address":"1516 Fawcett Ave","Name":"Japanese Surname","Source":"Morrison p59","Notes":" "},"geometry":{"type":"Point","coordinates":[-122.4420722,47.24816212]}},{"type":"Feature","properties":{"FID":167,"Address":"1516 Market St","Name":"Japanese Surname","Source":"Morrison p57","Notes":" "},"geometry":{"type":"Point","coordinates":[-122.4406972,47.24832563]}},{"type":"Feature","properties":{"FID":168,"Address":"1517 Commerce St","Name":"Wood & Co Inc Teas and Coffees Wholesale","Source":"Hanna Kae, 1929 city dir p872","Notes":"If you know Jefferson goes diagonally and then Co*"},"geometry":{"type":"Point","coordinates":[-122.4381935,47.24889517]}},{"type":"Feature","properties":{"FID":169,"Address":"1521 Market St","Name":"Japanese Surname","Source":"Morrison p57","Notes":" "},"geometry":{"type":"Point","coordinates":[-122.4401492,47.24786761]}},{"type":"Feature","properties":{"FID":170,"Address":"1519 1/2 Broadway St","Name":"New York Life Insurance Agency and Broadway Hotel","Source":"Morrison p55, Watanabe p69 Ito, 1933 city dir p117","Notes":"Insurance agency Shoji Ohira 1916 and 55 person h*"},"geometry":{"type":"Point","coordinates":[-122.4388458,47.24861077]}},{"type":"Feature","properties":{"FID":171,"Address":"1520 1/2 Broadway St","Name":"Japanese Surname","Source":"Morrison p55","Notes":" "},"geometry":{"type":"Point","coordinates":[-122.4392562,47.24830989]}},{"type":"Feature","properties":{"FID":172,"Address":"1522 Jefferson St","Name":"Carlton Hotel/Confectionary","Source":"Ito, city dir p141","Notes":"(Emerson C Wakefield) (?)"},"geometry":{"type":"Point","coordinates":[-122.4378098,47.24843439]}},{"type":"Feature","properties":{"FID":173,"Address":"1522 1/2 Broadway St","Name":"New York Hotel","Source":"Morrison p55, Watanabe p61","Notes":"Misuke Shinguchi 1915"},"geometry":{"type":"Point","coordinates":[-122.4392401,47.24822684]}},{"type":"Feature","properties":{"FID":174,"Address":"1522 Fawcett Ave","Name":"Seiji Konzo's House","Source":"Kazuo Horita, 1933 city dir p389 Morrison p59","Notes":"it just so happens that Seiji Konzo family lived *"},"geometry":{"type":"Point","coordinates":[-122.4420374,47.24799666]}},{"type":"Feature","properties":{"FID":175,"Address":"1523 Market St","Name":"Japanese Surname","Source":"Morrison p57","Notes":" "},"geometry":{"type":"Point","coordinates":[-122.4401191,47.24778479]}},{"type":"Feature","properties":{"FID":176,"Address":"1524 Market St","Name":"Japanese Surname","Source":"Morrison p57","Notes":" "},"geometry":{"type":"Point","coordinates":[-122.4406433,47.24809383]}},{"type":"Feature","properties":{"FID":177,"Address":"1525 Market St","Name":"Madison Hotel","Source":"Ito, Morrison p57","Notes":" "},"geometry":{"type":"Point","coordinates":[-122.4400976,47.24769826]}},{"type":"Feature","properties":{"FID":178,"Address":"1524 Fawcett Ave","Name":"Japanese Baptist Mission","Source":"Morrison p59","Notes":" "},"geometry":{"type":"Point","coordinates":[-122.4420213,47.24791361]}},{"type":"Feature","properties":{"FID":179,"Address":"1528 1/2 Broadway St","Name":"Japanese Surname","Source":"Morrison p55","Notes":" "},"geometry":{"type":"Point","coordinates":[-122.4391432,47.24791481]}},{"type":"Feature","properties":{"FID":180,"Address":"1529 Fawcett Ave","Name":"Nakamura","Source":"Morrison p59","Notes":" "},"geometry":{"type":"Point","coordinates":[-122.4415431,47.24764428]}},{"type":"Feature","properties":{"FID":181,"Address":"1530 Fawcett Ave","Name":"Uyeda","Source":"Morrison p59","Notes":" "},"geometry":{"type":"Point","coordinates":[-122.4419633,47.24766402]}},{"type":"Feature","properties":{"FID":182,"Address":"1532 Market St","Name":"The Tacoma Japanese Times","Source":"Munekata, Morrison p57, Watanabe p81, Ito","Notes":"Asahi Shimbum Newspaper branch office, Tatsuo Tak*"},"geometry":{"type":"Point","coordinates":[-122.4406049,47.24792544]}},{"type":"Feature","properties":{"FID":183,"Address":"1532 Fawcett Ave","Name":"Shioze","Source":"Morrison p59","Notes":" "},"geometry":{"type":"Point","coordinates":[-122.4420518,47.24807914]}},{"type":"Feature","properties":{"FID":184,"Address":"1534 Market St","Name":"Japanese Surname","Source":"Morrison p57","Notes":" "},"geometry":{"type":"Point","coordinates":[-122.4405844,47.24784246]}},{"type":"Feature","properties":{"FID":185,"Address":"1537 Broadway St","Name":"Japanese Surname","Source":"Morrison p55","Notes":" "},"geometry":{"type":"Point","coordinates":[-122.438672,47.24793758]}},{"type":"Feature","properties":{"FID":186,"Address":"1535 Pacific Ave","Name":"Hotel Savoy","Source":"Morrison p53","Notes":" "},"geometry":{"type":"Point","coordinates":[-122.4371662,47.24823209]}},{"type":"Feature","properties":{"FID":187,"Address":"1539 Fawcett Ave","Name":"Tsuchimochi","Source":"Morrison p59","Notes":" "},"geometry":{"type":"Point","coordinates":[-122.4416147,47.24798172]}},{"type":"Feature","properties":{"FID":188,"Address":"1541 Broadway St","Name":"Rector Hotel","Source":"Ito, Morrison p55","Notes":" "},"geometry":{"type":"Point","coordinates":[-122.4385469,47.24749926]}},{"type":"Feature","properties":{"FID":189,"Address":"1540 1/2 Commerce St","Name":"Japanese surname","Source":"Morrison p54","Notes":" "},"geometry":{"type":"Point","coordinates":[-122.4386454,47.24862901]}},{"type":"Feature","properties":{"FID":190,"Address":"1543 Market St","Name":"Japanese Surname","Source":"Morrison p57","Notes":" "},"geometry":{"type":"Point","coordinates":[-122.4400834,47.24761875]}},{"type":"Feature","properties":{"FID":191,"Address":"1539 1/2 Fawcett Ave","Name":"Kenmatsu Tailor","Source":"Morrison p59","Notes":"Nakanahi also lives here"},"geometry":{"type":"Point","coordinates":[-122.4415984,47.24789272]}},{"type":"Feature","properties":{"FID":192,"Address":"1545 Market St","Name":"Japanese Surname","Source":"Morrison p57","Notes":" "},"geometry":{"type":"Point","coordinates":[-122.4400577,47.24753586]}},{"type":"Feature","properties":{"FID":193,"Address":"1546 Commerce St","Name":"Frye Market","Source":"Ito, 1933 city dir p253","Notes":"checked 1933 city dir p253, Morrison p54 lists K.*"},"geometry":{"type":"Point","coordinates":[-122.4386249,47.24854603]}},{"type":"Feature","properties":{"FID":194,"Address":"1544 Fawcett Ave","Name":"Oyanaji","Source":"Morrison p58","Notes":" "},"geometry":{"type":"Point","coordinates":[-122.4418695,47.24729183]}},{"type":"Feature","properties":{"FID":195,"Address":"1544 Pacific Ave","Name":"N.P. Cafe","Source":"Morrison p53, Watanabe p65","Notes":"western restaurant Kenji Shibata and Genkichi Ino*"},"geometry":{"type":"Point","coordinates":[-122.4376735,47.24804981]}},{"type":"Feature","properties":{"FID":196,"Address":"1546 1/2  Market Street","Name":"Taira Tofu Store & Home","Source":"Ito, Junichi","Notes":" "},"geometry":{"type":"Point","coordinates":[-122.440547,47.24767585]}},{"type":"Feature","properties":{"FID":197,"Address":"1551 Broadway St","Name":"Japanese Surname","Source":"Morrison p55","Notes":" "},"geometry":{"type":"Point","coordinates":[-122.438369,47.24733579]}},{"type":"Feature","properties":{"FID":198,"Address":"1546 Fawcett Ave","Name":"Tamake and Inouye","Source":"Morrison p58","Notes":" "},"geometry":{"type":"Point","coordinates":[-122.441837,47.24711978]}},{"type":"Feature","properties":{"FID":199,"Address":"1548 Fawcett Ave","Name":"Kondo and Nakamura","Source":"Morrison p58","Notes":" "},"geometry":{"type":"Point","coordinates":[-122.4418192,47.24703794]}},{"type":"Feature","properties":{"FID":200,"Address":"1552 Market St","Name":"Japanese Surname","Source":"Morrison p57","Notes":" "},"geometry":{"type":"Point","coordinates":[-122.4403505,47.24702685]}},{"type":"Feature","properties":{"FID":201,"Address":"1551 1/2 Fawcett Ave","Name":"Otsuka","Source":"Morrison p58","Notes":" "},"geometry":{"type":"Point","coordinates":[-122.4415806,47.24781089]}},{"type":"Feature","properties":{"FID":202,"Address":"1551 Fawcett Ave","Name":"Kurose","Source":"Morrison p58","Notes":" "},"geometry":{"type":"Point","coordinates":[-122.4415636,47.24772726]}},{"type":"Feature","properties":{"FID":203,"Address":"1554 Market St","Name":"Judo Club and Astor Hotel","Source":"Ito, 1933 city dir p822 Morrison p57","Notes":"directory calls it Tacoma jujitsu Club"},"geometry":{"type":"Point","coordinates":[-122.4405326,47.24759337]}},{"type":"Feature","properties":{"FID":204,"Address":"1553 S Tacoma Ave","Name":"Konkokyo Mamichikai and Rev. Otsubo","Source":"Morrison p59","Notes":" "},"geometry":{"type":"Point","coordinates":[-122.4429427,47.24727493]}},{"type":"Feature","properties":{"FID":205,"Address":"1554 1/2 Market St","Name":"Columbus Hotel","Source":"Ito 1933 city dir p163","Notes":"Columbine Hotel (O Okawa), not in 1920 directory"},"geometry":{"type":"Point","coordinates":[-122.4405208,47.24750727]}},{"type":"Feature","properties":{"FID":206,"Address":"1556 Broadway St","Name":"Japanese Surname","Source":"Morrison p55","Notes":" "},"geometry":{"type":"Point","coordinates":[-122.4390144,47.24734953]}},{"type":"Feature","properties":{"FID":207,"Address":"1556 Market St","Name":"Tacoma Buddhist Church","Source":"Morrison p57","Notes":" "},"geometry":{"type":"Point","coordinates":[-122.4403683,47.24710868]}},{"type":"Feature","properties":{"FID":208,"Address":"1701 Market","Name":"Superior Hotel","Source":"Ito, Morrison p57","Notes":"[Hattori describes that her parents owned and ran*"},"geometry":{"type":"Point","coordinates":[-122.4399264,47.24676986]}},{"type":"Feature","properties":{"FID":209,"Address":"1702 Broadway St","Name":"Massasoit Hotel","Source":"Ito, Morrison p55, Watanabe p61","Notes":"Gosaku Hamasaki 1913"},"geometry":{"type":"Point","coordinates":[-122.4388992,47.24665757]}},{"type":"Feature","properties":{"FID":210,"Address":"1555 1/2 Market St","Name":"Hiroshima-ya Hotel","Source":"Ito, 1933 Morrison p57","Notes":"previously was the Astor House"},"geometry":{"type":"Point","coordinates":[-122.4400372,47.24745288]}},{"type":"Feature","properties":{"FID":211,"Address":"1702 S G St","Name":"Kuroda Home","Source":"Watanabe p69","Notes":"Wataro and Miyako Kuroda"},"geometry":{"type":"Point","coordinates":[-122.4447146,47.24630576]}},{"type":"Feature","properties":{"FID":212,"Address":"1700 Pacific Ave","Name":"Northern Pacific Restaurant","Source":"Ito, 1929 city dir p933","Notes":"checked 1933 city dir p195 and didn't see a Depot*"},"geometry":{"type":"Point","coordinates":[-122.4373773,47.24674357]}},{"type":"Feature","properties":{"FID":213,"Address":"1710 Broadway St","Name":"Sugiyama Laundry","Source":"Morrison p55","Notes":"Muyo Sugiyama 1911"},"geometry":{"type":"Point","coordinates":[-122.4388619,47.24648694]}},{"type":"Feature","properties":{"FID":214,"Address":"1706 S Tacoma Ave","Name":"Furouchi","Source":"Morrison p59","Notes":" "},"geometry":{"type":"Point","coordinates":[-122.443328,47.24638974]}},{"type":"Feature","properties":{"FID":215,"Address":"1708 S Tacoma Ave","Name":"Morikawa","Source":"Morrison p59","Notes":" "},"geometry":{"type":"Point","coordinates":[-122.4432907,47.24622968]}},{"type":"Feature","properties":{"FID":216,"Address":"1710 Fawcett  Ave","Name":"Seizuwa","Source":"Morrison p58","Notes":" "},"geometry":{"type":"Point","coordinates":[-122.441728,47.24639357]}},{"type":"Feature","properties":{"FID":217,"Address":"1718 Broadway St","Name":"K.K. Ome","Source":"Morrison p55","Notes":" "},"geometry":{"type":"Point","coordinates":[-122.4388279,47.24639228]}},{"type":"Feature","properties":{"FID":218,"Address":"1712 S Tacoma Ave","Name":"Jno Mecko","Source":"Morrison p59","Notes":" "},"geometry":{"type":"Point","coordinates":[-122.4432483,47.24607326]}},{"type":"Feature","properties":{"FID":219,"Address":"1717 Fawcett Ave","Name":"Buddhist Church","Source":"Munekata, 1933 Directory","Notes":"[Indicates she went to the Buddhist Temple] That *"},"geometry":{"type":"Point","coordinates":[-122.4410445,47.24616462]}},{"type":"Feature","properties":{"FID":220,"Address":"1715 S Tacoma Ave","Name":"Japanese Language School 3","Source":"Morrison, 1933 City Directory","Notes":"And these three were all catered to by Japanese A*"},"geometry":{"type":"Point","coordinates":[-122.4424506,47.24586406]}},{"type":"Feature","properties":{"FID":221,"Address":"1726 Market St","Name":"Ferndale Apartments","Source":"Morrison p57","Notes":"Hamada resident and manager, 4/8 residents have a*"},"geometry":{"type":"Point","coordinates":[-122.4402963,47.24587993]}},{"type":"Feature","properties":{"FID":222,"Address":"1722 Fawcett Ave","Name":"Hata Home","Source":"Jack Hata","Notes":"[Jack's Home] That was on Fawcett Avenue. 1722 Fa*"},"geometry":{"type":"Point","coordinates":[-122.4416836,47.24622767]}},{"type":"Feature","properties":{"FID":223,"Address":"1734 Market St","Name":"Japanese Surname","Source":"Morrison p57","Notes":" "},"geometry":{"type":"Point","coordinates":[-122.4401495,47.24568947]}},{"type":"Feature","properties":{"FID":224,"Address":"1735 Market St","Name":"Japanese Surname","Source":"Morrison p57","Notes":" "},"geometry":{"type":"Point","coordinates":[-122.439637,47.24572989]}},{"type":"Feature","properties":{"FID":225,"Address":"1738 Market St","Name":"Japanese Surname","Source":"Morrison p57","Notes":" "},"geometry":{"type":"Point","coordinates":[-122.4400997,47.24552068]}},{"type":"Feature","properties":{"FID":226,"Address":"1727 Fawcett Ave","Name":"Noro","Source":"Morrison p58","Notes":" "},"geometry":{"type":"Point","coordinates":[-122.441145,47.24586175]}},{"type":"Feature","properties":{"FID":227,"Address":"1736 Fawcett Ave","Name":"Ken Ishio","Source":"Morrison p58","Notes":" "},"geometry":{"type":"Point","coordinates":[-122.441639,47.24605939]}},{"type":"Feature","properties":{"FID":228,"Address":"1740 Market St","Name":"Japanese Surname","Source":"Morrison p57","Notes":" "},"geometry":{"type":"Point","coordinates":[-122.4400419,47.24531334]}},{"type":"Feature","properties":{"FID":229,"Address":"1743 Jefferson St","Name":"Japanese Surname","Source":"Morrison p60","Notes":" "},"geometry":{"type":"Point","coordinates":[-122.4384423,47.2457572]}},{"type":"Feature","properties":{"FID":230,"Address":"1744 Market St","Name":"Japanese Surname","Source":"Morrison p56","Notes":" "},"geometry":{"type":"Point","coordinates":[-122.4400088,47.24518296]}},{"type":"Feature","properties":{"FID":231,"Address":"1740 1/2 Market St","Name":"Japanese Surname","Source":"Morrison p56","Notes":" "},"geometry":{"type":"Point","coordinates":[-122.4400669,47.24539922]}},{"type":"Feature","properties":{"FID":232,"Address":"1740 1/2 Fawcett Ave","Name":"Kinosta","Source":"Morrison p58","Notes":" "},"geometry":{"type":"Point","coordinates":[-122.4415946,47.24589349]}},{"type":"Feature","properties":{"FID":233,"Address":"1745 Market St","Name":"Japanese Surname","Source":"Morrison p56","Notes":" "},"geometry":{"type":"Point","coordinates":[-122.4395198,47.24538904]}},{"type":"Feature","properties":{"FID":234,"Address":"1746 Fawcett Ave","Name":"Urushibata Home","Source":"Kunio, 1933 city dir p697 Morrison p58","Notes":"[Where Kunio lived] 17th and 19th on Fawcett."},"geometry":{"type":"Point","coordinates":[-122.4415501,47.24572759]}},{"type":"Feature","properties":{"FID":235,"Address":"1748 Fawcett Ave","Name":"Sato","Source":"Morrison p58","Notes":" "},"geometry":{"type":"Point","coordinates":[-122.4415056,47.24555932]}},{"type":"Feature","properties":{"FID":236,"Address":"1752 Fawcett Ave","Name":"Mizumoto","Source":"Morrison p58","Notes":" "},"geometry":{"type":"Point","coordinates":[-122.4414558,47.24539053]}},{"type":"Feature","properties":{"FID":237,"Address":"1752 Market St","Name":"Japanese Surname","Source":"Morrison p56","Notes":" "},"geometry":{"type":"Point","coordinates":[-122.4399634,47.2450141]}},{"type":"Feature","properties":{"FID":238,"Address":"1808 Broadway","Name":"Okamura Company","Source":"Ito, Morrison p55","Notes":"Jitsuo Takatsune manager"},"geometry":{"type":"Point","coordinates":[-122.4388069,47.24629443]}},{"type":"Feature","properties":{"FID":239,"Address":"1754 Jefferson St","Name":"Matsunaka Laundry and Yasuda Barber","Source":"Morrison p60, Watanabe p63","Notes":"Tamakichi Matsunaka, Barber shop Tamejiro Yasuda *"},"geometry":{"type":"Point","coordinates":[-122.4388117,47.24596885]}},{"type":"Feature","properties":{"FID":240,"Address":"1904 Market St","Name":"Modern Apartments","Source":"Morrison p56","Notes":"C.S. Miya zaki"},"geometry":{"type":"Point","coordinates":[-122.4399902,47.24451047]}},{"type":"Feature","properties":{"FID":241,"Address":"1908 Jefferson St","Name":"Tacoma Japanese Times","Source":"Morrison p60, Watanabe p81","Notes":"Also known as Tacoma Shuko (weekly) or Tacoma Jih*"},"geometry":{"type":"Point","coordinates":[-122.4392978,47.24463643]}},{"type":"Feature","properties":{"FID":242,"Address":"1901 Fawcett Ave","Name":"Japanese Methodist Church","Source":"Hanna Kae, Morrison p58","Notes":"[We went to] Methodist . Or I guess they changed *"},"geometry":{"type":"Point","coordinates":[-122.4406602,47.24457814]}},{"type":"Feature","properties":{"FID":243,"Address":"1926 Jefferson St","Name":"Nomura Laundry","Source":"Morrison p60","Notes":"Laundry, Yomimatsu Nomura, after 1900"},"geometry":{"type":"Point","coordinates":[-122.4392706,47.24417214]}},{"type":"Feature","properties":{"FID":244,"Address":"1911 Pacific Ave","Name":"Union Station","Source":"2019 Address for history museum","Notes":" "},"geometry":{"type":"Point","coordinates":[-122.4363569,47.2460818]}},{"type":"Feature","properties":{"FID":245,"Address":"1919 Fawcett Ave","Name":"Enomato","Source":"Morrison p58","Notes":" "},"geometry":{"type":"Point","coordinates":[-122.4407195,47.24434051]}},{"type":"Feature","properties":{"FID":246,"Address":"1948 S Tacoma Ave","Name":"Oikawa","Source":"Morrison p59","Notes":" "},"geometry":{"type":"Point","coordinates":[-122.4424563,47.24279909]}},{"type":"Feature","properties":{"FID":247,"Address":"1946 S Tacoma Ave","Name":"J.T. Kazawa","Source":"Morrison p59","Notes":" "},"geometry":{"type":"Point","coordinates":[-122.4425004,47.24298047]}},{"type":"Feature","properties":{"FID":248,"Address":"1954 S Tacoma Ave","Name":"Japanese Association of Tacoma","Source":"1933 city dir p350","Notes":"Carl S Miyazaki sec"},"geometry":{"type":"Point","coordinates":[-122.4424129,47.24261591]}},{"type":"Feature","properties":{"FID":249,"Address":"1955 S Tacoma Ave","Name":"Auto Repair and Fuji Ten Cent Store","Source":"Morrison p59","Notes":" "},"geometry":{"type":"Point","coordinates":[-122.4420123,47.24325945]}},{"type":"Feature","properties":{"FID":250,"Address":"809 Division Ave","Name":"Kawano Grocery","Source":"1933 city dir p.372","Notes":"Kawano Kazuye Teruko Grocery"},"geometry":{"type":"Point","coordinates":[-122.4498176,47.26297673]}},{"type":"Feature","properties":{"FID":251,"Address":"2301 S J St","Name":"McCarver Junior High","Source":"2019 address","Notes":" "},"geometry":{"type":"Point","coordinates":[-122.4467119,47.23979064]}},{"type":"Feature","properties":{"FID":252,"Address":"302 S13th St","Name":"Tokyo Cafe","Source":"Ito, 1929 city dir p781","Notes":"U C Kusumoto"},"geometry":{"type":"Point","coordinates":[-122.4400584,47.25099044]}},{"type":"Feature","properties":{"FID":253,"Address":"2410 N 30th St","Name":"Nakagawara Laundry","Source":"Watanabe p63","Notes":"Shikataro Nakagawara"},"geometry":{"type":"Point","coordinates":[-122.4689534,47.27460349]}},{"type":"Feature","properties":{"FID":254,"Address":"204 S 15th St","Name":"Oxford Hotel","Source":"Ito, Morrison p60, Watanabe p61","Notes":"Delmont Hotel, Hidetaro Tsushi and later Oxford H*"},"geometry":{"type":"Point","coordinates":[-122.4379773,47.24912851]}},{"type":"Feature","properties":{"FID":255,"Address":"304 S 17th St","Name":"Chicago Laundry and Uyeda Dye Work Co.","Source":"Ito, 1920 city dir p 241 Morrison p61","Notes":"K Kawaguchi"},"geometry":{"type":"Point","coordinates":[-122.4389233,47.24687236]}},{"type":"Feature","properties":{"FID":256,"Address":"309 S 17th St","Name":"Japanese Surname","Source":"Morrison p61","Notes":" "},"geometry":{"type":"Point","coordinates":[-122.4391919,47.24719639]}},{"type":"Feature","properties":{"FID":257,"Address":"307 S 17th St","Name":"St. Francis Hotel","Source":"Morrison p61","Notes":" "},"geometry":{"type":"Point","coordinates":[-122.4390562,47.24721295]}},{"type":"Feature","properties":{"FID":258,"Address":"305 S 17th St","Name":"Takada Cleaner","Source":"Morrison p61","Notes":" "},"geometry":{"type":"Point","coordinates":[-122.4389204,47.24722951]}},{"type":"Feature","properties":{"FID":259,"Address":"310 1/2 S 15th St","Name":"Suye Asazuma","Source":"Morrison p60","Notes":" "},"geometry":{"type":"Point","coordinates":[-122.4395962,47.24893983]}},{"type":"Feature","properties":{"FID":260,"Address":"310 S 17th St","Name":"Sumida Barber","Source":"Morrison p61, Watanabe p65","Notes":"Barber shop Jiro Sumida 1917"},"geometry":{"type":"Point","coordinates":[-122.4392476,47.24684908]}},{"type":"Feature","properties":{"FID":261,"Address":"310 S 15th St","Name":"Fukui Grocery and Books","Source":"Chizu, 1929 city dir p305","Notes":"Mr. Fukuye had a grocery store. [Near the Columbu*"},"geometry":{"type":"Point","coordinates":[-122.4395801,47.24885678]}},{"type":"Feature","properties":{"FID":262,"Address":"311 S 17th St","Name":"Takada","Source":"Morrison p61","Notes":" "},"geometry":{"type":"Point","coordinates":[-122.4393277,47.24717984]}},{"type":"Feature","properties":{"FID":263,"Address":"313 S 13th St","Name":"Okada Barber","Source":"Morrison p60","Notes":"Heikichi Takeda after 1911, Torakichi Okada barbe*"},"geometry":{"type":"Point","coordinates":[-122.4399178,47.25135043]}},{"type":"Feature","properties":{"FID":264,"Address":"314 S 15th St","Name":"Japanese Surname","Source":"Morrison p60","Notes":" "},"geometry":{"type":"Point","coordinates":[-122.4399689,47.24873123]}},{"type":"Feature","properties":{"FID":265,"Address":"313 S 15th St","Name":"Hotel Baker","Source":"Ito, 1929 city dir p994","Notes":" "},"geometry":{"type":"Point","coordinates":[-122.4402058,47.24887605]}},{"type":"Feature","properties":{"FID":266,"Address":"315 S 11th St","Name":"Fashion Barber Shop","Source":"Morrison p60","Notes":" "},"geometry":{"type":"Point","coordinates":[-122.440377,47.25340943]}},{"type":"Feature","properties":{"FID":267,"Address":"315 S 17th St","Name":"Fumide Node","Source":"Morrison p61","Notes":" "},"geometry":{"type":"Point","coordinates":[-122.4395832,47.24713985]}},{"type":"Feature","properties":{"FID":268,"Address":"317 S 13th St","Name":"Tailor","Source":"Morrison p60","Notes":" "},"geometry":{"type":"Point","coordinates":[-122.4400266,47.25133671]}},{"type":"Feature","properties":{"FID":269,"Address":"318 S 15th St","Name":"Japanese Surname","Source":"Morrison p60","Notes":" "},"geometry":{"type":"Point","coordinates":[-122.4401896,47.248793]}},{"type":"Feature","properties":{"FID":270,"Address":"319 S 13th St","Name":"Oka Barber","Source":"Ito, Misaki translated, 1933 city dir p896","Notes":" "},"geometry":{"type":"Point","coordinates":[-122.440253,47.25131506]}},{"type":"Feature","properties":{"FID":271,"Address":"318 1/2 S 15th St","Name":"Japanese Surname","Source":"Morrison p60","Notes":" "},"geometry":{"type":"Point","coordinates":[-122.4400011,47.24889734]}},{"type":"Feature","properties":{"FID":272,"Address":"407 J St","Name":"Eagle Steam Laundry Co","Source":"Watanabe p62","Notes":" "},"geometry":{"type":"Point","coordinates":[-122.4554907,47.2626121]}},{"type":"Feature","properties":{"FID":273,"Address":"319 S 13th St","Name":"Akase Barber and Laundry","Source":"Morrison p60","Notes":"Barber shop laundry combination, Kaizo Akase 1914"},"geometry":{"type":"Point","coordinates":[-122.4401398,47.25132588]}},{"type":"Feature","properties":{"FID":274,"Address":"411 S 15th","Name":"Japanese Language School 1","Source":"Mary Hanneman","Notes":" "},"geometry":{"type":"Point","coordinates":[-122.4414768,47.24908172]}},{"type":"Feature","properties":{"FID":275,"Address":"412 S 15th St","Name":"Taira","Source":"Morrison p60","Notes":" "},"geometry":{"type":"Point","coordinates":[-122.4414323,47.24869859]}},{"type":"Feature","properties":{"FID":276,"Address":"402 1/2 S 13th St","Name":"Dress Maker","Source":"Morrison p60","Notes":" "},"geometry":{"type":"Point","coordinates":[-122.4412995,47.25086698]}},{"type":"Feature","properties":{"FID":277,"Address":"413 S 15th St","Name":"Wakabayashu","Source":"Morrison p60","Notes":" "},"geometry":{"type":"Point","coordinates":[-122.441603,47.2490677]}},{"type":"Feature","properties":{"FID":278,"Address":"413 S 17th St","Name":"Tatakimoto and Nakano","Source":"Morrison p61","Notes":" "},"geometry":{"type":"Point","coordinates":[-122.4410353,47.24694277]}},{"type":"Feature","properties":{"FID":279,"Address":"414 S 17th St","Name":"Tsudo","Source":"Morrison p61","Notes":" "},"geometry":{"type":"Point","coordinates":[-122.4410113,47.24669142]}},{"type":"Feature","properties":{"FID":280,"Address":"414 S 15th St","Name":"Tamaka","Source":"Morrison p60","Notes":" "},"geometry":{"type":"Point","coordinates":[-122.4415498,47.24868471]}},{"type":"Feature","properties":{"FID":281,"Address":"423 Puyallup Ave","Name":"Yoshitomi Laundry/Morishita Junk","Source":"Watanabe p63,69","Notes":"Hisao Morishita"},"geometry":{"type":"Point","coordinates":[-122.4284016,47.2409787]}},{"type":"Feature","properties":{"FID":282,"Address":"432 Puyallup Ave","Name":"Hijishi Junk","Source":"Watanabe p69","Notes":"Zensuke Hijishi"},"geometry":{"type":"Point","coordinates":[-122.428432,47.24055921]}},{"type":"Feature","properties":{"FID":283,"Address":"415 S 19th St","Name":"Lucky's Cleaners","Source":"Morrison p61","Notes":" "},"geometry":{"type":"Point","coordinates":[-122.440469,47.24495534]}},{"type":"Feature","properties":{"FID":284,"Address":"501 S I St","Name":"Wright Park","Source":"Interview","Notes":"Well, I remember going to Wright Park to go swing*"},"geometry":{"type":"Point","coordinates":[-122.449064,47.26021649]}},{"type":"Feature","properties":{"FID":285,"Address":"510 s 15th St","Name":"Japanese Language School 2 and Yamasaki Home","Source":"Watanabe p68","Notes":" "},"geometry":{"type":"Point","coordinates":[-122.4425532,47.2486278]}},{"type":"Feature","properties":{"FID":286,"Address":"511 S 15th St","Name":"Takaoka Home","Source":"Chizu","Notes":"I was born in Tacoma, 511 South 15th Street, Morr*"},"geometry":{"type":"Point","coordinates":[-122.4429653,47.24891362]}},{"type":"Feature","properties":{"FID":287,"Address":"518 S 13th St","Name":"Japanese Methodist Church and Kato Home","Source":"Morrison p60, Watanabe p68","Notes":"Akisane Kato was leader, wife named Maseko"},"geometry":{"type":"Point","coordinates":[-122.4428619,47.2506607]}},{"type":"Feature","properties":{"FID":288,"Address":"625 Commerce St","Name":"Old City Hall","Source":"Hanna Kae, 2019 Address","Notes":" "},"geometry":{"type":"Point","coordinates":[-122.4399683,47.25748611]}},{"type":"Feature","properties":{"FID":289,"Address":"602 N Sprague Ave","Name":"Jason Lee Middle School","Source":"Google","Notes":" "},"geometry":{"type":"Point","coordinates":[-122.4643758,47.25636634]}},{"type":"Feature","properties":{"FID":290,"Address":"601 S 8th St","Name":"Central Elementary","Source":"Munekata, Google","Notes":" "},"geometry":{"type":"Point","coordinates":[-122.4465396,47.25626148]}},{"type":"Feature","properties":{"FID":291,"Address":"701 E St","Name":"Nagamoto Hotel/Hiroshimaya Inn","Source":"Watanabe p5,50","Notes":" "},"geometry":{"type":"Point","coordinates":[-122.4563411,47.2682602]}},{"type":"Feature","properties":{"FID":292,"Address":"713 Pacific Ave","Name":"Yamane Shoe Repair","Source":"Watanabe p64","Notes":"Shuichi Yamane"},"geometry":{"type":"Point","coordinates":[-122.4391017,47.25681071]}},{"type":"Feature","properties":{"FID":293,"Address":"711-13 Pacific Ave","Name":"Greyhound Bus Depot","Source":"Ito, 1929 city dir p927","Notes":"[the hotel] right across the street from the Grey*"},"geometry":{"type":"Point","coordinates":[-122.4389504,47.25671318]}},{"type":"Feature","properties":{"FID":294,"Address":"701 S 37th St","Name":"Lincoln Park High School","Source":"2019 address","Notes":" "},"geometry":{"type":"Point","coordinates":[-122.4426571,47.22639325]}},{"type":"Feature","properties":{"FID":295,"Address":"744 Court D","Name":"Market Cafe","Source":"1933 city dir p331","Notes":"Horiuchi Giichi (Sayo)"},"geometry":{"type":"Point","coordinates":[-122.4431764,47.25621606]}},{"type":"Feature","properties":{"FID":296,"Address":"707 S 15th St","Name":"Kameji Nutahara","Source":"Watanabe p68","Notes":"Superintendent of Baptist Church and President of*"},"geometry":{"type":"Point","coordinates":[-122.4453181,47.24831771]}},{"type":"Feature","properties":{"FID":297,"Address":"738 St Helens Ave","Name":"Lucky Dye Work","Source":"Watanabe p62","Notes":"Chonosuke Iwai"},"geometry":{"type":"Point","coordinates":[-122.4418658,47.25612076]}},{"type":"Feature","properties":{"FID":298,"Address":"8010 South Tacoma Way","Name":"Kubo and Son br store","Source":"1929 city dir p1091","Notes":" "},"geometry":{"type":"Point","coordinates":[-122.4840489,47.18395511]}},{"type":"Feature","properties":{"FID":299,"Address":"8012 South Tacoma Way","Name":"City Limits Fruit Co.","Source":"1933 city dir p331","Notes":"Horiuchi Kay"},"geometry":{"type":"Point","coordinates":[-122.4840438,47.18381831]}},{"type":"Feature","properties":{"FID":300,"Address":"809 Pacific Ave","Name":"Empire Hotel & Cafe","Source":"Watanabe p65, Ito, 1933 city dir p221","Notes":"Sakunoshin Matsumoto"},"geometry":{"type":"Point","coordinates":[-122.4389526,47.25609149]}},{"type":"Feature","properties":{"FID":301,"Address":"8102 1/2 South Tacoma Way","Name":"Kubo Yukichi","Source":"1929 city dir p1091","Notes":" "},"geometry":{"type":"Point","coordinates":[-122.4840867,47.18320453]}},{"type":"Feature","properties":{"FID":302,"Address":"8104 South Tacoma Way","Name":"Yakima Fruit Co","Source":"1941 city dir p1091","Notes":"Nishijima Satoshi"},"geometry":{"type":"Point","coordinates":[-122.4840768,47.18303091]}},{"type":"Feature","properties":{"FID":303,"Address":"8202 1/2 South Tacoma Way","Name":"Hayashi","Source":"1941 city dir p1091","Notes":"Mrs. Shige Hayashi"},"geometry":{"type":"Point","coordinates":[-122.4840761,47.18261191]}},{"type":"Feature","properties":{"FID":304,"Address":"8202 South Tacoma Way","Name":"Hayashi Grocery","Source":"1941 city dir p1091","Notes":"Hayashi Mitsuru"},"geometry":{"type":"Point","coordinates":[-122.4840835,47.18281117]}},{"type":"Feature","properties":{"FID":305,"Address":"8224 South Tacoma Way","Name":"Airway Market","Source":"1933 city dir","Notes":"Kimura Kimiko"},"geometry":{"type":"Point","coordinates":[-122.484075,47.18243933]}},{"type":"Feature","properties":{"FID":306,"Address":"8204 South Tacoma Way","Name":"Kubo and Son fruits and grocery","Source":"1941 city dir p1091","Notes":" "},"geometry":{"type":"Point","coordinates":[-122.4840801,47.18271838]}},{"type":"Feature","properties":{"FID":307,"Address":"8290 South Tacoma Way","Name":"Sunrise Market Grocery and Fruits","Source":"1941 city dir p1091","Notes":"Kubota Sometaro"},"geometry":{"type":"Point","coordinates":[-122.4841055,47.1820817]}},{"type":"Feature","properties":{"FID":308,"Address":"8324 South Tacoma Way","Name":"Hi-Way Fruit","Source":"1941 city dir p1091","Notes":"Takeuchi Fred"},"geometry":{"type":"Point","coordinates":[-122.4841284,47.1816379]}},{"type":"Feature","properties":{"FID":309,"Address":"8402 South Tacoma Way","Name":"Henry Horiuchi Fruit","Source":"1933 city dir p331","Notes":"Horiuchi Henry (Eiko) fruit"},"geometry":{"type":"Point","coordinates":[-122.4840505,47.18101786]}},{"type":"Feature","properties":{"FID":310,"Address":"8402 South Tacoma Way","Name":"Henry Horiuchi Fruit","Source":"1933 city dir p331","Notes":"Horiuchi Henry (Eiko) fruit"},"geometry":{"type":"Point","coordinates":[-122.4840505,47.18101786]}},{"type":"Feature","properties":{"FID":311,"Address":"8402 South Tacoma Way","Name":"Henry Horiuchi Fruit","Source":"1933 city dir p331","Notes":"Horiuchi Henry (Eiko) fruit"},"geometry":{"type":"Point","coordinates":[-122.4840505,47.18101786]}},{"type":"Feature","properties":{"FID":312,"Address":"8511 South Tacoma Way","Name":"Vacant Lot near Airway Market","Source":"1933 city dir p?","Notes":" "},"geometry":{"type":"Point","coordinates":[-122.483502,47.18011069]}},{"type":"Feature","properties":{"FID":313,"Address":"8608 South Tacoma Way","Name":"Liberty Florists and Market","Source":"1941 city dir p1091","Notes":"Kumasaki Thos J and Takaki Joe"},"geometry":{"type":"Point","coordinates":[-122.4840524,47.179415]}},{"type":"Feature","properties":{"FID":314,"Address":"8612 South Tacoma Way","Name":"South End Grocery","Source":"1941 city dir p1091","Notes":"Kimura Denhachi"},"geometry":{"type":"Point","coordinates":[-122.4840486,47.17930972]}},{"type":"Feature","properties":{"FID":315,"Address":"944 Market St","Name":"A B Hand Laundry","Source":"1933 city dir p822","Notes":"(Sonaya Yamamoto)"},"geometry":{"type":"Point","coordinates":[-122.4420593,47.25407725]}},{"type":"Feature","properties":{"FID":316,"Address":"921 1/2 E St","Name":"Makimura Photography Studio","Source":"Watanabe p68","Notes":"Shinkichi Makimura"},"geometry":{"type":"Point","coordinates":[-122.4609849,47.26967435]}},{"type":"Feature","properties":{"FID":317,"Address":"928 Fawcett Ave","Name":"Fujimoto Home","Source":"Yoshioko","Notes":"Yoshioko also lists living at 1710 Fawcett, Morri*"},"geometry":{"type":"Point","coordinates":[-122.4436086,47.25414827]}},{"type":"Feature","properties":{"FID":318,"Address":"953 S Tacoma Ave","Name":"California Laundry","Source":"Watanabe p62, 1920 city dir p229","Notes":"Katami Nakano"},"geometry":{"type":"Point","coordinates":[-122.4440671,47.2531009]}},{"type":"Feature","properties":{"FID":319,"Address":"906 S 14th St","Name":"Yoshimura","Source":"Morrison p60","Notes":"Tsurao Yoshimura, managager of Okamura Co."},"geometry":{"type":"Point","coordinates":[-122.4483433,47.24903239]}},{"type":"Feature","properties":{"FID":320,"Address":"1717 North Cedar","Name":"Sunya Pratt's House","Source":"Munekata, Justin Wadland","Notes":" "},"geometry":{"type":"Point","coordinates":[-122.4760592,47.26566939]}},{"type":"Feature","properties":{"FID":321,"Address":"Broadway sw cor 11th","Name":"Stone Fisher Depot","Source":"Ito, 1920 city dir p786","Notes":" "},"geometry":{"type":"Point","coordinates":[-122.4404636,47.25304643]}},{"type":"Feature","properties":{"FID":322,"Address":"A st - Court A, 11th St - 12th St","Name":"Post Office Immigration Office","Source":"Ito, 1920 city dir p335","Notes":"no exact address, known as \"federal building\", ma*"},"geometry":{"type":"Point","coordinates":[-122.4368539,47.25387505]}},{"type":"Feature","properties":{"FID":323,"Address":" ","Name":"Hotel","Source":"Metseker","Notes":" "},"geometry":{"type":"Point","coordinates":[-122.4224854,47.25097165]}},{"type":"Feature","properties":{"FID":324,"Address":" ","Name":"Dining Room","Source":"Metseker","Notes":" "},"geometry":{"type":"Point","coordinates":[-122.4220136,47.25097831]}},{"type":"Feature","properties":{"FID":325,"Address":" ","Name":" ","Source":"Metseker","Notes":" "},"geometry":{"type":"Point","coordinates":[-122.4217387,47.25095124]}},{"type":"Feature","properties":{"FID":326,"Address":" ","Name":"House 2","Source":"Metseker","Notes":" "},"geometry":{"type":"Point","coordinates":[-122.4212661,47.25080367]}},{"type":"Feature","properties":{"FID":327,"Address":" ","Name":"House 3","Source":"Metseker","Notes":" "},"geometry":{"type":"Point","coordinates":[-122.4210505,47.25070515]}},{"type":"Feature","properties":{"FID":328,"Address":" ","Name":"House 4","Source":"Metseker","Notes":" "},"geometry":{"type":"Point","coordinates":[-122.4207976,47.25065078]}},{"type":"Feature","properties":{"FID":329,"Address":" ","Name":"House 5","Source":"Metseker","Notes":" "},"geometry":{"type":"Point","coordinates":[-122.4205584,47.25059142]}},{"type":"Feature","properties":{"FID":330,"Address":" ","Name":"House 11","Source":"Metseker","Notes":" "},"geometry":{"type":"Point","coordinates":[-122.4189822,47.25015975]}},{"type":"Feature","properties":{"FID":331,"Address":" ","Name":"House 10","Source":"Metseker","Notes":" "},"geometry":{"type":"Point","coordinates":[-122.4192561,47.25023282]}},{"type":"Feature","properties":{"FID":332,"Address":" ","Name":"House 12","Source":"Metseker","Notes":" "},"geometry":{"type":"Point","coordinates":[-122.4186365,47.25008867]}},{"type":"Feature","properties":{"FID":333,"Address":" ","Name":"House 6","Source":"Metseker","Notes":" "},"geometry":{"type":"Point","coordinates":[-122.4203133,47.2505324]}},{"type":"Feature","properties":{"FID":334,"Address":" ","Name":"House 7","Source":"Metseker","Notes":" "},"geometry":{"type":"Point","coordinates":[-122.4200751,47.25047088]}},{"type":"Feature","properties":{"FID":335,"Address":" ","Name":"House 14","Source":"Metseker","Notes":" "},"geometry":{"type":"Point","coordinates":[-122.4179713,47.24989082]}},{"type":"Feature","properties":{"FID":336,"Address":" ","Name":"Japanese Hotel","Source":" ","Notes":" "},"geometry":{"type":"Point","coordinates":[-122.4171831,47.24981303]}},{"type":"Feature","properties":{"FID":337,"Address":" ","Name":"House 1","Source":" ","Notes":" "},"geometry":{"type":"Point","coordinates":[-122.4215343,47.25083758]}},{"type":"Feature","properties":{"FID":338,"Address":" ","Name":"House 8","Source":" ","Notes":" "},"geometry":{"type":"Point","coordinates":[-122.4198762,47.25041008]}},{"type":"Feature","properties":{"FID":339,"Address":" ","Name":"Wheeler Osgood Japanese Building","Source":"Metseker","Notes":" "},"geometry":{"type":"Point","coordinates":[-122.4252094,47.24966374]}},{"type":"Feature","properties":{"FID":340,"Address":"2410 N 30th St","Name":"Nakagawara Laundry","Source":"Watanabe p63","Notes":"Shikataro Nakagawara"},"geometry":{"type":"Point","coordinates":[-122.4760946,47.26905406]}},{"type":"Feature","properties":{"FID":341,"Address":"1118 S K St","Name":"Jinguji Produce","Source":"1933 city dir p.353","Notes":"Jinguji Masatoshi Hama Produce"},"geometry":{"type":"Point","coordinates":[-122.4664129,47.26475085]}},{"type":"Feature","properties":{"FID":342,"Address":"1023 S K St","Name":"Hayashi Produce","Source":"1933 city dir p.809","Notes":"Hayashi F Produce"},"geometry":{"type":"Point","coordinates":[-122.4648853,47.26453037]}},{"type":"Feature","properties":{"FID":343,"Address":"1122 S K St","Name":"Sato Produce","Source":"1933 city dir p.809","Notes":"Sato Toru Produce"},"geometry":{"type":"Point","coordinates":[-122.466696,47.26484008]}},{"type":"Feature","properties":{"FID":344,"Address":"2346 S I St","Name":"Nimura Yashuhiko","Source":"1933 city dir p.801","Notes":" "},"geometry":{"type":"Point","coordinates":[-122.4462239,47.23901807]}},{"type":"Feature","properties":{"FID":345,"Address":"213 N I St","Name":"Kawano Grocery Store","Source":"Interview","Notes":" "},"geometry":{"type":"Point","coordinates":[-122.4523608,47.26271012]}},{"type":"Feature","properties":{"FID":346,"Address":"1804 S Tacoma Ave","Name":"Mountain Road Market","Source":"1940 city dir p. 436","Notes":"Korin Fred Ayako"},"geometry":{"type":"Point","coordinates":[-122.4430983,47.2454249]}},{"type":"Feature","properties":{"FID":347,"Address":"711 S 25th St","Name":"Longfellow Elementary","Source":"Tacoma Boys and Girls Club","Notes":" "},"geometry":{"type":"Point","coordinates":[-122.4434375,47.23842865]}},{"type":"Feature","properties":{"FID":348,"Address":"1002 S 52nd St","Name":"Horace Mann Elementary","Source":"2019 address","Notes":" "},"geometry":{"type":"Point","coordinates":[-122.4478527,47.20912494]}},{"type":"Feature","properties":{"FID":349,"Address":"1712 S 17th St","Name":"Stanley Elementary","Source":"2019 address","Notes":" "},"geometry":{"type":"Point","coordinates":[-122.4592546,47.24422827]}}]}