{"type":"FeatureCollection","features":[{"type":"Feature","properties":{"Address":"108 1/2 S 14th St","Name":"Palmer Apartments","Source":"Ito, 1920 city dir p654","Notes":" ","Type":"Home","Photo":0},"geometry":{"type":"Point","coordinates":[-122.4367216,47.25037345]}},{"type":"Feature","properties":{"Address":"1124 Market St","Name":"Hiyashi","Source":"Morrison (1993) p58","Notes":" ","Type":"Home","Photo":0},"geometry":{"type":"Point","coordinates":[-122.4415596,47.25218094]}},{"type":"Feature","properties":{"Address":"1125 Court D","Name":"Sazio Suzuki","Source":"Morrison (1993) p61","Notes":" ","Type":"Home","Photo":0},"geometry":{"type":"Point","coordinates":[-122.4418687,47.25229122]}},{"type":"Feature","properties":{"Address":"1131 Market St","Name":"Jinguji Home","Source":"Masaye Jinguji Interview, Morrison (1993, 58): 1728 Fawcett","Notes":"Masaye says the house was across the street from the Tofu Store on 1131 Market St.","Type":"Home","Photo":0},"geometry":{"type":"Point","coordinates":[-122.441121,47.25240195]}},{"type":"Feature","properties":{"Address":"1130 Court C","Name":"Genjiro Namba","Source":"Morrison (1993) p61","Notes":" ","Type":"Home","Photo":0},"geometry":{"type":"Point","coordinates":[-122.4408283,47.25228485]}},{"type":"Feature","properties":{"Address":"1126 1/2 Market St","Name":"Tuomo Sado","Source":"Morrison (1993) p58","Notes":" ","Type":"Home","Photo":0},"geometry":{"type":"Point","coordinates":[-122.441532,47.25209273]}},{"type":"Feature","properties":{"Address":"1136 Fawcett Ave","Name":"Hoshide","Source":"Morrison (1993) p59","Notes":" ","Type":"Home","Photo":0},"geometry":{"type":"Point","coordinates":[-122.4430516,47.25211868]}},{"type":"Feature","properties":{"Address":"1317 1/2 Broadway St","Name":"New Tacoma Hotel, Watanabe Dentist Office, and Warashima Dentist Office","Source":"Morrison (1993, 56) Ito (1926), Ryo Munekata Interview, and Polk's 1929 Tacoma City Directory page 867","Notes":"'We moved to another hotel between 13th and 15th on Broadway, Called the New Tacoma Hotel, which is directly across the street from the present Sheraton Hotel'-Ryo Munekata","Type":"Home","Photo":0},"geometry":{"type":"Point","coordinates":[-122.439646,47.25046171]}},{"type":"Feature","properties":{"Address":"1319 Court C","Name":"Japanese Surname","Source":"Morrison (1993) p61","Notes":" ","Type":"Home","Photo":0},"geometry":{"type":"Point","coordinates":[-122.4403272,47.25039852]}},{"type":"Feature","properties":{"Address":"1318 Fawcett Ave","Name":"S. Toki","Source":"Morrison (1993) p59","Notes":" ","Type":"Home","Photo":0},"geometry":{"type":"Point","coordinates":[-122.4427421,47.2504987]}},{"type":"Feature","properties":{"Address":"1317 1/2 Court C","Name":"Japanese Surname","Source":"Morrison (1993) p61","Notes":" ","Type":"Home","Photo":0},"geometry":{"type":"Point","coordinates":[-122.440351,47.25047817]}},{"type":"Feature","properties":{"Address":"1320 Fawcett Ave","Name":"Fuji","Source":"Morrison (1993) p59","Notes":" ","Type":"Home","Photo":0},"geometry":{"type":"Point","coordinates":[-122.4426939,47.25032573]}},{"type":"Feature","properties":{"Address":"1326 1/2 Fawcett Ave","Name":"Hasegawa","Source":"Morrison (1993) p59","Notes":" ","Type":"Home","Photo":0},"geometry":{"type":"Point","coordinates":[-122.4426526,47.25015263]}},{"type":"Feature","properties":{"Address":"1330 Broadway St","Name":"Japanese Surname","Source":"Morrison (1993) p56","Notes":" ","Type":"Home","Photo":0},"geometry":{"type":"Point","coordinates":[-122.4399508,47.25057682]}},{"type":"Feature","properties":{"Address":"1328 1/2 Broadway St","Name":"Japanese Surname","Source":"Morrison (1993) p56","Notes":" ","Type":"Home","Photo":0},"geometry":{"type":"Point","coordinates":[-122.4398706,47.25029368]}},{"type":"Feature","properties":{"Address":"1334 Fawcett Ave","Name":"Japanese Surname","Source":"Morrison (1993) p59","Notes":" ","Type":"Home","Photo":0},"geometry":{"type":"Point","coordinates":[-122.4424552,47.24942985]}},{"type":"Feature","properties":{"Address":"1338 1/2 Broadway St","Name":"Japanese Surname","Source":"Morrison (1993) p56","Notes":" ","Type":"Home","Photo":0},"geometry":{"type":"Point","coordinates":[-122.4398139,47.25007918]}},{"type":"Feature","properties":{"Address":"1339 Broadway St","Name":"Japanese Surname","Source":"Morrison (1993) p56","Notes":" ","Type":"Home","Photo":0},"geometry":{"type":"Point","coordinates":[-122.4395821,47.25019377]}},{"type":"Feature","properties":{"Address":"1342 Market St","Name":"Japanese Surname","Source":"Morrison (1993) p57","Notes":" ","Type":"Home","Photo":0},"geometry":{"type":"Point","coordinates":[-122.4410427,47.24985654]}},{"type":"Feature","properties":{"Address":"1343 Broadway St","Name":"Japanese Surname","Source":"Morrison (1993) p56","Notes":" ","Type":"Home","Photo":0},"geometry":{"type":"Point","coordinates":[-122.4395274,47.24998757]}},{"type":"Feature","properties":{"Address":"1342 Fawcett Ave","Name":"Nyshizaki","Source":"Morrison (1993) p59","Notes":" ","Type":"Home","Photo":0},"geometry":{"type":"Point","coordinates":[-122.4425748,47.2497897]}},{"type":"Feature","properties":{"Address":"1342 1/2 Fawcett Ave","Name":"Sako","Source":"Morrison (1993) p59","Notes":" ","Type":"Home","Photo":0},"geometry":{"type":"Point","coordinates":[-122.4426121,47.24997357]}},{"type":"Feature","properties":{"Address":"1343 Market St","Name":"Japanese Surname","Source":"Morrison (1993) p57","Notes":" ","Type":"Home","Photo":0},"geometry":{"type":"Point","coordinates":[-122.4406419,47.25060482]}},{"type":"Feature","properties":{"Address":"1344 Market St","Name":"Japanese Surname","Source":"Morrison (1993) p57","Notes":" ","Type":"Home","Photo":0},"geometry":{"type":"Point","coordinates":[-122.441026,47.24978124]}},{"type":"Feature","properties":{"Address":"1345 Broadway St","Name":"Japanese Surname","Source":"Morrison (1993) p55","Notes":" ","Type":"Home","Photo":0},"geometry":{"type":"Point","coordinates":[-122.439204,47.25022866]}},{"type":"Feature","properties":{"Address":"1343 1/2 Fawcett Ave","Name":"Nagai","Source":"Morrison (1993) p59","Notes":" ","Type":"Home","Photo":0},"geometry":{"type":"Point","coordinates":[-122.4421142,47.25010393]}},{"type":"Feature","properties":{"Address":"1346 Broadway St","Name":"Nikko Cafe and Chinese Garden Restaurant","Source":"Munekata, 1929 city dir p867 Morrison p55 Munekat*","Notes":" ","Type":"Home","Photo":0},"geometry":{"type":"Point","coordinates":[-122.4397461,47.2497994]}},{"type":"Feature","properties":{"Address":"1345 Fawcett Ave","Name":"Sugihara and Namiki","Source":"Morrison (1993) p59","Notes":" ","Type":"Home","Photo":0},"geometry":{"type":"Point","coordinates":[-122.4418499,47.24922336]}},{"type":"Feature","properties":{"Address":"1348 Broadway St","Name":"Japanese Surname","Source":"Morrison (1993) p55","Notes":" ","Type":"Home","Photo":0},"geometry":{"type":"Point","coordinates":[-122.4397296,47.24972826]}},{"type":"Feature","properties":{"Address":"1347 1/2 Fawcett Ave","Name":"Japanese Surname","Source":"Morrison (1993) p59","Notes":" ","Type":"Home","Photo":0},"geometry":{"type":"Point","coordinates":[-122.4420683,47.24992318]}},{"type":"Feature","properties":{"Address":"1353 Broadway St","Name":"Japanese Surname","Source":"Morrison (1993) p55","Notes":" ","Type":"Home","Photo":0},"geometry":{"type":"Point","coordinates":[-122.4391328,47.24995132]}},{"type":"Feature","properties":{"Address":"1355 1/2 Market St","Name":"Japanese Surname Business","Source":"Morrison (1993) p57","Notes":" ","Type":"Home","Photo":0},"geometry":{"type":"Point","coordinates":[-122.4406034,47.25044686]}},{"type":"Feature","properties":{"Address":"1422 Court C","Name":"Japanese Surname","Source":"Morrison (1993) p61","Notes":" ","Type":"Home","Photo":0},"geometry":{"type":"Point","coordinates":[-122.4399807,47.24881733]}},{"type":"Feature","properties":{"Address":"1421 Court A","Name":"Japanese Surname","Source":"Morrison (1993) p61","Notes":" ","Type":"Home","Photo":0},"geometry":{"type":"Point","coordinates":[-122.4369157,47.25003453]}},{"type":"Feature","properties":{"Address":"1481 Court A","Name":"Japanese Surname","Source":"Morrison (1993) p61","Notes":" ","Type":"Home","Photo":0},"geometry":{"type":"Point","coordinates":[-122.4367791,47.24956843]}},{"type":"Feature","properties":{"Address":"1501 Fawcett Ave","Name":"Nishimoto","Source":"Morrison (1993) p59","Notes":" ","Type":"Home","Photo":0},"geometry":{"type":"Point","coordinates":[-122.4417762,47.24866009]}},{"type":"Feature","properties":{"Address":"1505 Court C","Name":"Japanese Surname","Source":"Morrison (1993) p61","Notes":" ","Type":"Home","Photo":0},"geometry":{"type":"Point","coordinates":[-122.4395553,47.24877387]}},{"type":"Feature","properties":{"Address":"1508 Broadway St","Name":"Japanese Surname","Source":"Morrison (1993) p55","Notes":" ","Type":"Home","Photo":0},"geometry":{"type":"Point","coordinates":[-122.4393211,47.24863198]}},{"type":"Feature","properties":{"Address":"1510 Broadway St","Name":"Japanese surname","Source":"Morrison (1993) p55","Notes":" ","Type":"Home","Photo":0},"geometry":{"type":"Point","coordinates":[-122.4393068,47.24854949]}},{"type":"Feature","properties":{"Address":"1511 Market St","Name":"Japanese Surname","Source":"Morrison (1993) p57","Notes":" ","Type":"Home","Photo":0},"geometry":{"type":"Point","coordinates":[-122.4401634,47.24794712]}},{"type":"Feature","properties":{"Address":"1510 Fawcett Ave","Name":"Mieko Home","Source":"June Mieko Interview","Notes":"And then, they had another house on Fawcett, whic*","Type":"Home","Photo":0},"geometry":{"type":"Point","coordinates":[-122.4421258,47.24841179]}},{"type":"Feature","properties":{"Address":"1514 Market St","Name":"Japanese Surname","Source":"Morrison (1993) p57","Notes":" ","Type":"Home","Photo":0},"geometry":{"type":"Point","coordinates":[-122.4407177,47.24840861]}},{"type":"Feature","properties":{"Address":"1514 Fawcett Ave","Name":"Otsuka and Ueda","Source":"Morrison (1993) p59","Notes":" ","Type":"Home","Photo":0},"geometry":{"type":"Point","coordinates":[-122.4420893,47.24824575]}},{"type":"Feature","properties":{"Address":"1514 S Tacoma Ave","Name":"Ito","Source":"Morrison (1993) p59","Notes":" ","Type":"Home","Photo":0},"geometry":{"type":"Point","coordinates":[-122.4436636,47.2480663]}},{"type":"Feature","properties":{"Address":"1516 Fawcett Ave","Name":"Japanese Surname","Source":"Morrison (1993) p59","Notes":" ","Type":"Home","Photo":0},"geometry":{"type":"Point","coordinates":[-122.4420722,47.24816212]}},{"type":"Feature","properties":{"Address":"1516 Market St","Name":"Japanese Surname","Source":"Morrison (1993) p57","Notes":" ","Type":"Home","Photo":0},"geometry":{"type":"Point","coordinates":[-122.4406972,47.24832563]}},{"type":"Feature","properties":{"Address":"1521 Market St","Name":"Japanese Surname","Source":"Morrison (1993) p57","Notes":" ","Type":"Home","Photo":0},"geometry":{"type":"Point","coordinates":[-122.4401492,47.24786761]}},{"type":"Feature","properties":{"Address":"1520 1/2 Broadway St","Name":"Japanese Surname","Source":"Morrison (1993) p55","Notes":" ","Type":"Home","Photo":0},"geometry":{"type":"Point","coordinates":[-122.4392562,47.24830989]}},{"type":"Feature","properties":{"Address":"1523 Market St","Name":"Japanese Surname","Source":"Morrison (1993) p57","Notes":" ","Type":"Home","Photo":0},"geometry":{"type":"Point","coordinates":[-122.4401191,47.24778479]}},{"type":"Feature","properties":{"Address":"1524 Market St","Name":"Japanese Surname","Source":"Morrison (1993) p57","Notes":" ","Type":"Home","Photo":0},"geometry":{"type":"Point","coordinates":[-122.4406433,47.24809383]}},{"type":"Feature","properties":{"Address":"1528 1/2 Broadway St","Name":"Japanese Surname","Source":"Morrison (1993) p55","Notes":" ","Type":"Home","Photo":0},"geometry":{"type":"Point","coordinates":[-122.4391432,47.24791481]}},{"type":"Feature","properties":{"Address":"1529 Fawcett Ave","Name":"Nakamura","Source":"Morrison (1993) p59","Notes":" ","Type":"Home","Photo":0},"geometry":{"type":"Point","coordinates":[-122.4415431,47.24764428]}},{"type":"Feature","properties":{"Address":"1530 Fawcett Ave","Name":"Uyeda","Source":"Morrison (1993) p59","Notes":" ","Type":"Home","Photo":0},"geometry":{"type":"Point","coordinates":[-122.4419633,47.24766402]}},{"type":"Feature","properties":{"Address":"1532 Fawcett Ave","Name":"Shioze","Source":"Morrison (1993) p59","Notes":" ","Type":"Home","Photo":0},"geometry":{"type":"Point","coordinates":[-122.4420518,47.24807914]}},{"type":"Feature","properties":{"Address":"1534 Market St","Name":"Japanese Surname","Source":"Morrison (1993) p57","Notes":" ","Type":"Home","Photo":0},"geometry":{"type":"Point","coordinates":[-122.4405844,47.24784246]}},{"type":"Feature","properties":{"Address":"1537 Broadway St","Name":"Japanese Surname","Source":"Morrison (1993) p55","Notes":" ","Type":"Home","Photo":0},"geometry":{"type":"Point","coordinates":[-122.438672,47.24793758]}},{"type":"Feature","properties":{"Address":"1539 Fawcett Ave","Name":"Tsuchimochi","Source":"Morrison (1993) p59","Notes":" ","Type":"Home","Photo":0},"geometry":{"type":"Point","coordinates":[-122.4416147,47.24798172]}},{"type":"Feature","properties":{"Address":"1540 1/2 Commerce St","Name":"Japanese surname","Source":"Morrison (1993) p54","Notes":" ","Type":"Home","Photo":0},"geometry":{"type":"Point","coordinates":[-122.4386454,47.24862901]}},{"type":"Feature","properties":{"Address":"1543 Market St","Name":"Japanese Surname","Source":"Morrison (1993) p57","Notes":" ","Type":"Home","Photo":0},"geometry":{"type":"Point","coordinates":[-122.4400834,47.24761875]}},{"type":"Feature","properties":{"Address":"1545 Market St","Name":"Japanese Surname","Source":"Morrison (1993) p57","Notes":" ","Type":"Home","Photo":0},"geometry":{"type":"Point","coordinates":[-122.4400577,47.24753586]}},{"type":"Feature","properties":{"Address":"1544 Fawcett Ave","Name":"Oyanaji","Source":"Morrison (1993) p58","Notes":" ","Type":"Home","Photo":0},"geometry":{"type":"Point","coordinates":[-122.4418695,47.24729183]}},{"type":"Feature","properties":{"Address":"1551 Broadway St","Name":"Japanese Surname","Source":"Morrison (1993) p55","Notes":" ","Type":"Home","Photo":0},"geometry":{"type":"Point","coordinates":[-122.438369,47.24733579]}},{"type":"Feature","properties":{"Address":"1546 Fawcett Ave","Name":"Tamake and Inouye","Source":"Morrison (1993) p58","Notes":" ","Type":"Home","Photo":0},"geometry":{"type":"Point","coordinates":[-122.441837,47.24711978]}},{"type":"Feature","properties":{"Address":"1548 Fawcett Ave","Name":"Kondo and Nakamura","Source":"Morrison (1993) p58","Notes":" ","Type":"Home","Photo":0},"geometry":{"type":"Point","coordinates":[-122.4418192,47.24703794]}},{"type":"Feature","properties":{"Address":"1552 Market St","Name":"Japanese Surname","Source":"Morrison (1993) p57","Notes":" ","Type":"Home","Photo":0},"geometry":{"type":"Point","coordinates":[-122.4403505,47.24702685]}},{"type":"Feature","properties":{"Address":"1551 1/2 Fawcett Ave","Name":"Otsuka","Source":"Morrison (1993) p58","Notes":" ","Type":"Home","Photo":0},"geometry":{"type":"Point","coordinates":[-122.4415806,47.24781089]}},{"type":"Feature","properties":{"Address":"1551 Fawcett Ave","Name":"Kurose","Source":"Morrison (1993) p58","Notes":" ","Type":"Home","Photo":0},"geometry":{"type":"Point","coordinates":[-122.4415636,47.24772726]}},{"type":"Feature","properties":{"Address":"1553 S Tacoma Ave","Name":"Konkokyo Mamichikai and Rev. Otsubo","Source":"Morrison (1993) p59","Notes":" ","Type":"Home","Photo":0},"geometry":{"type":"Point","coordinates":[-122.4429427,47.24727493]}},{"type":"Feature","properties":{"Address":"1556 Broadway St","Name":"Japanese Surname","Source":"Morrison (1993) p55","Notes":" ","Type":"Home","Photo":0},"geometry":{"type":"Point","coordinates":[-122.4390144,47.24734953]}},{"type":"Feature","properties":{"Address":"1702 S G St","Name":"Kuroda Home","Source":"Watanabe (1986) p69","Notes":"Wataro and Miyako Kuroda","Type":"Home","Photo":0},"geometry":{"type":"Point","coordinates":[-122.4447146,47.24630576]}},{"type":"Feature","properties":{"Address":"1706 S Tacoma Ave","Name":"Furouchi","Source":"Morrison (1993) p59","Notes":" ","Type":"Home","Photo":0},"geometry":{"type":"Point","coordinates":[-122.443328,47.24638974]}},{"type":"Feature","properties":{"Address":"1708 S Tacoma Ave","Name":"Morikawa","Source":"Morrison (1993) p59","Notes":" ","Type":"Home","Photo":0},"geometry":{"type":"Point","coordinates":[-122.4432907,47.24622968]}},{"type":"Feature","properties":{"Address":"1710 Fawcett  Ave","Name":"Seizuwa","Source":"Morrison (1993) p58","Notes":" ","Type":"Home","Photo":0},"geometry":{"type":"Point","coordinates":[-122.441728,47.24639357]}},{"type":"Feature","properties":{"Address":"1718 Broadway St","Name":"K.K. Ome","Source":"Morrison (1993) p55","Notes":" ","Type":"Home","Photo":0},"geometry":{"type":"Point","coordinates":[-122.4388279,47.24639228]}},{"type":"Feature","properties":{"Address":"1712 S Tacoma Ave","Name":"Jno Mecko","Source":"Morrison (1993) p59","Notes":" ","Type":"Home","Photo":0},"geometry":{"type":"Point","coordinates":[-122.4432483,47.24607326]}},{"type":"Feature","properties":{"Address":"1726 Market St","Name":"Ferndale Apartments","Source":"Morrison p57","Notes":"Hamada resident and manager, 4/8 residents have a*","Type":"Home","Photo":0},"geometry":{"type":"Point","coordinates":[-122.4402963,47.24587993]}},{"type":"Feature","properties":{"Address":"1722 Fawcett Ave","Name":"Hata Home","Source":"Jack Hata","Notes":"[Jack's Home] That was on Fawcett Avenue. 1722 Fa*","Type":"Home","Photo":0},"geometry":{"type":"Point","coordinates":[-122.4416836,47.24622767]}},{"type":"Feature","properties":{"Address":"1734 Market St","Name":"Japanese Surname","Source":"Morrison (1993) p57","Notes":" ","Type":"Home","Photo":0},"geometry":{"type":"Point","coordinates":[-122.4401495,47.24568947]}},{"type":"Feature","properties":{"Address":"1735 Market St","Name":"Japanese Surname","Source":"Morrison (1993) p57","Notes":" ","Type":"Home","Photo":0},"geometry":{"type":"Point","coordinates":[-122.439637,47.24572989]}},{"type":"Feature","properties":{"Address":"1738 Market St","Name":"Japanese Surname","Source":"Morrison (1993) p57","Notes":" ","Type":"Home","Photo":0},"geometry":{"type":"Point","coordinates":[-122.4400997,47.24552068]}},{"type":"Feature","properties":{"Address":"1727 Fawcett Ave","Name":"Noro","Source":"Morrison (1993) p58","Notes":" ","Type":"Home","Photo":0},"geometry":{"type":"Point","coordinates":[-122.441145,47.24586175]}},{"type":"Feature","properties":{"Address":"1736 Fawcett Ave","Name":"Ken Ishio","Source":"Morrison (1993) p58","Notes":" ","Type":"Home","Photo":0},"geometry":{"type":"Point","coordinates":[-122.441639,47.24605939]}},{"type":"Feature","properties":{"Address":"1740 Market St","Name":"Japanese Surname","Source":"Morrison (1993) p57","Notes":" ","Type":"Home","Photo":0},"geometry":{"type":"Point","coordinates":[-122.4400419,47.24531334]}},{"type":"Feature","properties":{"Address":"1743 Jefferson St","Name":"Japanese Surname","Source":"Morrison (1993) p60","Notes":" ","Type":"Home","Photo":0},"geometry":{"type":"Point","coordinates":[-122.4384423,47.2457572]}},{"type":"Feature","properties":{"Address":"1744 Market St","Name":"Japanese Surname","Source":"Morrison (1993) p56","Notes":" ","Type":"Home","Photo":0},"geometry":{"type":"Point","coordinates":[-122.4400088,47.24518296]}},{"type":"Feature","properties":{"Address":"1740 1/2 Market St","Name":"Japanese Surname","Source":"Morrison (1993) p56","Notes":" ","Type":"Home","Photo":0},"geometry":{"type":"Point","coordinates":[-122.4400669,47.24539922]}},{"type":"Feature","properties":{"Address":"1740 1/2 Fawcett Ave","Name":"Kinosta","Source":"Morrison (1993) p58","Notes":" ","Type":"Home","Photo":0},"geometry":{"type":"Point","coordinates":[-122.4415946,47.24589349]}},{"type":"Feature","properties":{"Address":"1745 Market St","Name":"Japanese Surname","Source":"Morrison (1993) p56","Notes":" ","Type":"Home","Photo":0},"geometry":{"type":"Point","coordinates":[-122.4395198,47.24538904]}},{"type":"Feature","properties":{"Address":"1746 Fawcett Ave","Name":"Urushibata Home","Source":"Kunio, 1933 city dir p697 Morrison p58","Notes":"[Where Kunio lived] 17th and 19th on Fawcett.","Type":"Home","Photo":0},"geometry":{"type":"Point","coordinates":[-122.4415501,47.24572759]}},{"type":"Feature","properties":{"Address":"1748 Fawcett Ave","Name":"Sato","Source":"Morrison (1993) p58","Notes":" ","Type":"Home","Photo":0},"geometry":{"type":"Point","coordinates":[-122.4415056,47.24555932]}},{"type":"Feature","properties":{"Address":"1752 Fawcett Ave","Name":"Mizumoto","Source":"Morrison (1993) p58","Notes":" ","Type":"Home","Photo":0},"geometry":{"type":"Point","coordinates":[-122.4414558,47.24539053]}},{"type":"Feature","properties":{"Address":"1752 Market St","Name":"Japanese Surname","Source":"Morrison (1993) p56","Notes":" ","Type":"Home","Photo":0},"geometry":{"type":"Point","coordinates":[-122.4399634,47.2450141]}},{"type":"Feature","properties":{"Address":"1904 Market St","Name":"Modern Apartments","Source":"Morrison (1993) p56","Notes":"C.S. Miya zaki","Type":"Home","Photo":0},"geometry":{"type":"Point","coordinates":[-122.4399902,47.24451047]}},{"type":"Feature","properties":{"Address":"1919 Fawcett Ave","Name":"Enomato","Source":"Morrison (1993) p58","Notes":" ","Type":"Home","Photo":0},"geometry":{"type":"Point","coordinates":[-122.4407195,47.24434051]}},{"type":"Feature","properties":{"Address":"1948 S Tacoma Ave","Name":"Oikawa","Source":"Morrison (1993) p59","Notes":" ","Type":"Home","Photo":0},"geometry":{"type":"Point","coordinates":[-122.4424563,47.24279909]}},{"type":"Feature","properties":{"Address":"1946 S Tacoma Ave","Name":"J.T. Kazawa","Source":"Morrison (1993) p59","Notes":" ","Type":"Home","Photo":0},"geometry":{"type":"Point","coordinates":[-122.4425004,47.24298047]}},{"type":"Feature","properties":{"Address":"1511 Market St","Name":"Kawano Home","Source":"Morrison (1993, 57), Harue Kawano Interview","Notes":"'And I had, grew up with, uh, five broth-, five siblings. It was really six, but one little girl died when I was only an infant. So there were five children, three boys and two girls. Uh, three girls and two boys. And a mother and father.' -Harue Kawano,","Type":"Home","Photo":0},"geometry":{"type":"Point","coordinates":[-122.4401634,47.24794712]}},{"type":"Feature","properties":{"Address":"309 S 17th St","Name":"Japanese Surname","Source":"Morrison (1993) p61","Notes":" ","Type":"Home","Photo":0},"geometry":{"type":"Point","coordinates":[-122.4391919,47.24719639]}},{"type":"Feature","properties":{"Address":"310 1/2 S 15th St","Name":"Suye Asazuma","Source":"Morrison (1993) p60","Notes":" ","Type":"Home","Photo":0},"geometry":{"type":"Point","coordinates":[-122.4395962,47.24893983]}},{"type":"Feature","properties":{"Address":"311 S 17th St","Name":"Takada","Source":"Morrison (1993) p61","Notes":" ","Type":"Home","Photo":0},"geometry":{"type":"Point","coordinates":[-122.4393277,47.24717984]}},{"type":"Feature","properties":{"Address":"314 S 15th St","Name":"Japanese Surname","Source":"Morrison (1993) p60","Notes":" ","Type":"Home","Photo":0},"geometry":{"type":"Point","coordinates":[-122.4399689,47.24873123]}},{"type":"Feature","properties":{"Address":"315 S 17th St","Name":"Fumide Node","Source":"Morrison (1993) p61","Notes":" ","Type":"Home","Photo":0},"geometry":{"type":"Point","coordinates":[-122.4395832,47.24713985]}},{"type":"Feature","properties":{"Address":"318 S 15th St","Name":"Japanese Surname","Source":"Morrison (1993) p60","Notes":" ","Type":"Home","Photo":0},"geometry":{"type":"Point","coordinates":[-122.4401896,47.248793]}},{"type":"Feature","properties":{"Address":"318 1/2 S 15th St","Name":"Japanese Surname","Source":"Morrison (1993) p60","Notes":" ","Type":"Home","Photo":0},"geometry":{"type":"Point","coordinates":[-122.4400011,47.24889734]}},{"type":"Feature","properties":{"Address":"412 S 15th St","Name":"Taira","Source":"Morrison (1993) p60","Notes":" ","Type":"Home","Photo":0},"geometry":{"type":"Point","coordinates":[-122.4414323,47.24869859]}},{"type":"Feature","properties":{"Address":"413 S 15th St","Name":"Wakabayashu","Source":"Morrison (1993) p60","Notes":" ","Type":"Home","Photo":0},"geometry":{"type":"Point","coordinates":[-122.441603,47.2490677]}},{"type":"Feature","properties":{"Address":"413 S 17th St","Name":"Tatakimoto and Nakano","Source":"Morrison (1993) p61","Notes":" ","Type":"Home","Photo":0},"geometry":{"type":"Point","coordinates":[-122.4410353,47.24694277]}},{"type":"Feature","properties":{"Address":"414 S 17th St","Name":"Tsudo","Source":"Morrison (1993) p61","Notes":" ","Type":"Home","Photo":0},"geometry":{"type":"Point","coordinates":[-122.4410113,47.24669142]}},{"type":"Feature","properties":{"Address":"414 S 15th St","Name":"Tamaka","Source":"Morrison (1993) p60","Notes":" ","Type":"Home","Photo":0},"geometry":{"type":"Point","coordinates":[-122.4415498,47.24868471]}},{"type":"Feature","properties":{"Address":"511 S 15th St","Name":"Takaoka Home","Source":"Chizu","Notes":"I was born in Tacoma, 511 South 15th Street, Morr*","Type":"Home","Photo":0},"geometry":{"type":"Point","coordinates":[-122.4429653,47.24891362]}},{"type":"Feature","properties":{"Address":"707 S 15th St","Name":"Kameji Nutahara","Source":"Watanabe (1986) p68","Notes":"Superintendent of Baptist Church and President of*","Type":"Home","Photo":0},"geometry":{"type":"Point","coordinates":[-122.4453181,47.24831771]}},{"type":"Feature","properties":{"Address":"8102 1/2 South Tacoma Way","Name":"Kubo Yukichi","Source":"1929 city dir p1091","Notes":" ","Type":"Home","Photo":0},"geometry":{"type":"Point","coordinates":[-122.4840867,47.18320453]}},{"type":"Feature","properties":{"Address":"8202 1/2 South Tacoma Way","Name":"Hayashi","Source":"1941 city dir p1091","Notes":"Mrs. Shige Hayashi","Type":"Home","Photo":0},"geometry":{"type":"Point","coordinates":[-122.4840761,47.18261191]}},{"type":"Feature","properties":{"Address":"928 Fawcett Ave","Name":"Fujimoto Home","Source":"Yoshioko","Notes":"Yoshioko also lists living at 1710 Fawcett, Morri*","Type":"Home","Photo":0},"geometry":{"type":"Point","coordinates":[-122.4436086,47.25414827]}},{"type":"Feature","properties":{"Address":"906 S 14th St","Name":"Yoshimura","Source":"Morrison p60","Notes":"Tsurao Yoshimura, managager of Okamura Co.","Type":"Home","Photo":0},"geometry":{"type":"Point","coordinates":[-122.4483433,47.24903239]}},{"type":"Feature","properties":{"Address":"1717 North Cedar","Name":"Sunya Pratt's House","Source":"Munekata, Justin Wadland","Notes":" ","Type":"Home","Photo":0},"geometry":{"type":"Point","coordinates":[-122.4760592,47.26566939]}},{"type":"Feature","properties":{"Address":"St Paul Ave","Name":"House 2","Source":"1926 Metseker Atlas","Notes":" ","Type":"Home","Photo":0},"geometry":{"type":"Point","coordinates":[-122.4212661,47.25080367]}},{"type":"Feature","properties":{"Address":"St Paul Ave","Name":"House 3","Source":"1926 Metseker Atlas","Notes":" ","Type":"Home","Photo":0},"geometry":{"type":"Point","coordinates":[-122.4210505,47.25070515]}},{"type":"Feature","properties":{"Address":"St Paul Ave","Name":"House 4","Source":"1926 Metseker Atlas","Notes":" ","Type":"Home","Photo":0},"geometry":{"type":"Point","coordinates":[-122.4207976,47.25065078]}},{"type":"Feature","properties":{"Address":"St Paul Ave","Name":"House 5","Source":"1926 Metseker Atlas","Notes":" ","Type":"Home","Photo":0},"geometry":{"type":"Point","coordinates":[-122.4205584,47.25059142]}},{"type":"Feature","properties":{"Address":"St Paul Ave","Name":"House 11","Source":"1926 Metseker Atlas","Notes":" ","Type":"Home","Photo":0},"geometry":{"type":"Point","coordinates":[-122.4189822,47.25015975]}},{"type":"Feature","properties":{"Address":"St Paul Ave","Name":"House 10","Source":"1926 Metseker Atlas","Notes":" ","Type":"Home","Photo":0},"geometry":{"type":"Point","coordinates":[-122.4192561,47.25023282]}},{"type":"Feature","properties":{"Address":"St Paul Ave","Name":"House 12","Source":"1926 Metseker Atlas","Notes":" ","Type":"Home","Photo":0},"geometry":{"type":"Point","coordinates":[-122.4186365,47.25008867]}},{"type":"Feature","properties":{"Address":"St Paul Ave","Name":"House 6","Source":"1926 Metseker Atlas","Notes":" ","Type":"Home","Photo":0},"geometry":{"type":"Point","coordinates":[-122.4203133,47.2505324]}},{"type":"Feature","properties":{"Address":"St Paul Ave","Name":"House 7","Source":"1926 Metseker Atlas","Notes":" ","Type":"Home","Photo":0},"geometry":{"type":"Point","coordinates":[-122.4200751,47.25047088]}},{"type":"Feature","properties":{"Address":"St Paul Ave","Name":"House 14","Source":"1926 Metseker Atlas","Notes":" ","Type":"Home","Photo":0},"geometry":{"type":"Point","coordinates":[-122.4179713,47.24989082]}},{"type":"Feature","properties":{"Address":"St Paul Ave","Name":"House 1","Source":"1926 Metseker Atlas","Notes":" ","Type":"Home","Photo":0},"geometry":{"type":"Point","coordinates":[-122.4215343,47.25083758]}},{"type":"Feature","properties":{"Address":"St Paul Ave","Name":"House 8","Source":"1926 Metseker Atlas","Notes":" ","Type":"Home","Photo":0},"geometry":{"type":"Point","coordinates":[-122.4198762,47.25041008]}},{"type":"Feature","properties":{"Address":"2346 S I St","Name":"Nimura Yashuhiko","Source":"1933 city dir p.801","Notes":" ","Type":"Home","Photo":0},"geometry":{"type":"Point","coordinates":[-122.4462239,47.23901807]}}]}